stop_id,stop_code,stop_name,stop_lat,stop_lon
"0001","0001","CARICAMENTO\ACQUARIO",44.410568,8.928358
"0003","0003","GRAMSCI 1\METRO' DARSENA",44.413310,8.926333
"0004","0004","GRAMSCI 2\STATUTO",44.414672,8.924183
"0005","0005","GRAMSCI 3\COMMENDA",44.415535,8.922012
"0006","0006","MARITTIMA\PRINCIPE FS",44.415553,8.919453
"0007","0007","BUOZZI 1\PIAZZA SAN TEODORO",44.414338,8.913065
"0008","0008","BUOZZI 2\METRO-LANTERNA",44.413567,8.911202
"0009","0009","FRANCIA 1\MATITONE",44.410352,8.905432
"0010","0010","FRANCIA 2\STAZIONE FS",44.408878,8.899675
"0011","0011","BURANELLO 1\BARABINO",44.409068,8.896335
"0012","0012","BURANELLO 2\GIOVANETTI",44.410510,8.891888
"0013","0013","AVIO 1\MOLTENI",44.411913,8.887002
"0014","0014","PACINOTTI\FIUMARA",44.414057,8.883777
"0015","0015","PIERAGOSTINI\FIUMARA",44.414910,8.881810
"0016","0016","CORNIGLIANO 1\GIARDINI MELIS",44.416132,8.873887
"0017","0017","CORNIGLIANO 2\RIZZOLIO",44.415873,8.871413
"0018","0018","CORNIGLIANO 3\PIAZZA CONTI",44.415490,8.867735
"0019","0019","CORNIGLIANO 4\STAZIONE FS",44.415323,8.864925
"0020","0020","SIFFREDI 2\ACCIAIO",44.420077,8.858743
"0021","0021","SIFFREDI 3\CALCINARA",44.422370,8.856040
"0022","0022","HERMADA\MENOTTI",44.423375,8.853003
"0023","0023","PUCCINI 1\SESTRI FS AEROPORTO",44.422252,8.849405
"0024","0024","PUCCINI 2\SESTRI FS",44.423097,8.846300
"0025","0025","SOLIMAN\CERRUTI",44.424408,8.844067
"0026","0026","MERANO 1\VILLA ROSSI",44.426138,8.843202
"0027","0027","MERANO 2\MONFALCONE",44.426803,8.840437
"0028","0028","MERANO 3\AMIU",44.427440,8.835748
"0029","0029","MULTEDO\VILLA CHIESA",44.426158,8.830228
"0030","0030","RONCHI\VIGILI DEL FUOCO",44.425607,8.826972
"0031","0031","LUNGOMARE DI PEGLI 1\VARENNA",44.424823,8.821227
"0032","0032","LUNGOMARE2\FS-MUSEIPALLAVICINI",44.424762,8.815713
"0033","0033","PEGLI 1\PORTICCIOLO",44.424607,8.812323
"0034","0034","PEGLI 2\RISVEGLIO",44.423593,8.807070
"0035","0035","PEGLI 4\LIDO",44.424348,8.801823
"0036","0036","PRA' 1\CASTELLUCCIO",44.424783,8.799358
"0037","0037","PRA' 3\FERRIERE",44.425782,8.793688
"0038","0038","PRA' 4\PRA' FS",44.426510,8.789135
"0039","0039","PRA' 5\CORDANIERI",44.426975,8.785890
"0040","0040","PRA' 6\LAURA",44.427455,8.779828
"0041","0041","PRA' 7\PALMARO CENTRO",44.427455,8.773927
"0042","0042","PRA' 8\DE MARI",44.427823,8.771512
"0043","0043","PRA' 9\VILLA PODESTA'",44.428073,8.766598
"0044","0044","PRA' 10\VERRINA",44.428397,8.762212
"0045","0045","VOLTRI\VOLTRI FS",44.428898,8.759110
"0046","0046","VERITA'\VOLTRI FS",44.428492,8.755333
"0047","0047","CAMOZZINI 1\VILLA DUCHESSA",44.428408,8.750917
"0048","0048","CAMOZZINI 2\PRATI",44.428590,8.747848
"0049","0049","CAMOZZINI 3\CADUTI",44.428125,8.745138
"0050","0050","CAMOZZINI\DALL'ORTO",44.427375,8.743255
"0051","0051","CAMOZZINI 2\CADUTI",44.428160,8.745485
"0052","0052","CAMOZZINI 3\ODICINI",44.428473,8.749440
"0053","0053","CAMOZZINI 4\VILLA DUCHESSA",44.428263,8.751523
"0054","0054","VERITA'\VOLTRI FS",44.428435,8.755720
"0055","0055","VOLTRI\VOLTRI FS",44.428697,8.759988
"0056","0056","PRA' 1\VERRINA",44.428145,8.763823
"0057","0057","PRA' 2\VILLA PODESTA'",44.427970,8.767245
"0058","0058","PRA' 3\DE MARI",44.427780,8.771290
"0059","0059","PRA' 4\PALMARO CENTRO",44.427305,8.774397
"0060","0060","PRA' 5\LAURA",44.427373,8.779687
"0061","0061","PRA' 6\CORDANIERI",44.426868,8.786257
"0062","0062","PRA' 7\PRA' FS",44.426415,8.789113
"0063","0063","PRA' 8\FERRIERE",44.425690,8.793702
"0064","0064","PEGLI 1\CASTELLUCCIO",44.424585,8.800008
"0065","0065","PEGLI 2\LIDO",44.423973,8.803520
"0066","0066","PEGLI 3\RISVEGLIO",44.423215,8.807397
"0067","0067","PEGLI 4\PORTICCIOLO",44.424590,8.812612
"0068","0068","LUNGOMARE1\FS-MUSEIPALLAVICINI",44.424833,8.816852
"0069","0069","LUNGOMARE DI PEGLI 2\VARENNA",44.424573,8.819038
"0070","0070","RONCHI\VIGILI DEL FUOCO",44.425293,8.825907
"0071","0071","MULTEDO\VILLA CHIESA",44.426007,8.831280
"0072","0072","MERANO 1\AMIU",44.427337,8.836298
"0073","0073","MERANO 2\MONFALCONE",44.426623,8.840700
"0074","0074","MERANO 3\VILLA ROSSI",44.426022,8.843113
"0075","0075","MENOTTI 2\CHIESA",44.424215,8.849048
"0076","0076","MENOTTI 3\HERMADA",44.423333,8.852253
"0079","0079","CORNIGLIANO 1\SAVIO",44.415335,8.867125
"0081","0081","CORNIGLIANO 2\BRIGHENTI",44.415890,8.872675
"0082","0082","CORNIGLIANO 3\MASSENA",44.416088,8.874925
"0083","0083","PIERAGOSTINI\FIUMARA",44.414488,8.883098
"0084","0084","PACINOTTI\FIUMARA",44.412738,8.884550
"0085","0085","AVIO\MOLTENI",44.411890,8.886488
"0086","0086","CANTORE 1\MONTANO",44.412780,8.889570
"0087","0087","CANTORE 2\LA SPEZIA",44.411675,8.893588
"0088","0088","CANTORE 4\S.B. DEL FOSSATO",44.410432,8.898422
"0089","0089","CANTORE 6\MATITONE",44.411727,8.906910
"0090","0090","DINEGRO\TRAGHETTI-LANTERNA",44.412348,8.909627
"0091","0091","BUOZZI\METRO' DINEGRO",44.413862,8.912312
"0092","0092","MARITTIMA\PRINCIPE FS",44.415238,8.918430
"0093","0093","GRAMSCI 2\METRO' DARSENA",44.413725,8.925408
"0094","0094","THAON DI REVEL\BRIGNOLE FS",44.405728,8.945727
"0096","0096","AVIO\FIUMARA",44.412118,8.885427
"0097","0097","SULFUREE 1\AUTOSTRADA",44.428383,8.769562
"0099","0099","FIRENZE 7\CARBONARA",44.414852,8.932997
"0100","0100","DINEGRO\TERMINAL TRAGHETTI",44.412150,8.909058
"0101","0101","CANTORE 2\COL",44.411067,8.904632
"0102","0102","CANTORE 3\S.B. DEL FOSSATO",44.410575,8.898797
"0103","0103","CANTORE 5\VILLA SCASSI",44.411537,8.895088
"0104","0104","CANTORE 6\RONCO",44.412220,8.891918
"0105","0105","MONTANO\SAMPIERDARENA FS",44.413160,8.888212
"0107","0107","SAMPIERDARENA 1\MOLTENI",44.410837,8.885883
"0108","0108","SAMPIERDARENA 2\DELLA CELLA",44.409638,8.890568
"0109","0109","BARABINO\BURANELLO",44.408555,8.897650
"0110","0110","FRANCIA 1\WTC",44.408892,8.900692
"0111","0111","PINETTI 3",44.420508,8.969775
"0112","0112","PRINCIPE FS\CAPOLINEA",44.416733,8.921903
"0113","0113","DORIA\METRO' PRINCIPE",44.416447,8.919817
"0114","0114","SAN BENEDETTO\AMBA ALAGI",44.415697,8.915638
"0115","0115","FRANCIA 2\MATITONE",44.410153,8.905328
"0116","0116","BRIGNOLE FS\CAPOLINEA",44.406098,8.946178
"0117","0117","BRIGATA BISAGNO\CADORNA",44.403628,8.946655
"0118","0118","SAFFI 1\QUESTURA",44.399778,8.944515
"0119","0119","SAFFI 2\PESCATORI",44.397670,8.943287
"0120","0120","SAFFI 3\MUSEO VILLA CROCE",44.397687,8.939117
"0121","0121","SAFFI 4\FIODOR",44.398070,8.936527
"0122","0122","QUADRIO 1\ORTIZ",44.402332,8.931285
"0123","0123","QUADRIO 2\MARINA",44.403570,8.930008
"0124","0124","CAVOUR\VARCO QUADRIO",44.406012,8.927608
"0125","0125","SOLIMAN\MENOTTI",44.425238,8.844272
"0126","0126","CAVOUR\VARCO QUADRIO",44.406092,8.927398
"0127","0127","QUADRIO\MARINA",44.404002,8.929380
"0128","0128","SAFFI 2\RIVOLI",44.400307,8.932665
"0129","0129","SAFFI 3\FIODOR",44.398013,8.936407
"0130","0130","SAFFI 4\MUSEO VILLA CROCE",44.397457,8.939643
"0131","0131","SAFFI 5\PESCATORI",44.397123,8.942900
"0132","0132","SAFFI 6\QUESTURA",44.399795,8.944650
"0133","0133","DIAZ 2\PIAZZA DELLA VITTORIA",44.401958,8.943310
"0134","0134","FIUME\THAON DI REVEL",44.405522,8.944873
"0135","0135","ARIMONDI\POLI",44.495448,8.904398
"0137","0137","CANEPARI 1\BRIN",44.429193,8.893407
"0138","0138","CANEPARI 2\DANDOLO",44.431993,8.893175
"0139","0139","CANEPARI 3\PIOMBELLI",44.433523,8.893022
"0140","0140","PALLAVICINI\VEZZANI",44.437217,8.892773
"0141","0141","RIVAROLO 1\CARNIA",44.441048,8.891870
"0142","0142","RIVAROLO 2\LANZA",44.443653,8.892812
"0143","0143","RIVAROLO 3\CENTRO COMMERCIALE",44.446475,8.893723
"0144","0144","RIVAROLO 4\TEGLIA",44.447928,8.894100
"0145","0145","RIVARA\MONTE SEI BUSI",44.450170,8.894208
"0146","0146","TEGLIA 1\MARITANO",44.452413,8.894923
"0147","0147","RETA 1\GIRO DEL VENTO",44.454800,8.898400
"0148","0148","RETA 2\VIGILI DEL FUOCO",44.456798,8.900182
"0149","0149","RISSOTTO\BOLZANETO FS",44.458745,8.901277
"0150","0150","COLANO\OSPEDALE PASTORINO",44.463282,8.902380
"0152","0152","FERRIERE BRUZZO\MERCATO",44.467018,8.906220
"0153","0153","BRIGNOLE FS\CAPOLINEA",44.405702,8.946725
"0154","0154","MORASSO\CAPOLINEA",44.470072,8.904740
"0155","0155","FERRIERE BRUZZO 2\BRATTE",44.465073,8.904517
"0156","0156","OSPEDALE PASTORINO",44.463155,8.901902
"0157","0157","RISMONDO\BOLZANETO FS",44.459508,8.901645
"0158","0158","RETA 1\BARCHETTA",44.456042,8.899715
"0159","0159","RETA 2\GIRO DEL VENTO",44.454827,8.897882
"0160","0160","TEGLIA 2\MARITANO",44.451653,8.894345
"0161","0161","TEGLIA 3\RIVARA",44.449747,8.894123
"0162","0162","RIVAROLO 1\TEGLIA",44.447695,8.893937
"0163","0163","RIVAROLO 2\CENTRO COMMERCIALE",44.445747,8.893407
"0164","0164","RIVAROLO 3\LANZA",44.443772,8.892767
"0165","0165","RIVAROLO 4\CARNIA",44.440887,8.891688
"0166","0166","PALLAVICINI\CELESIA",44.437752,8.891880
"0167","0167","JORI 1\PONGOLI",44.433380,8.892293
"0168","0168","JORI 2\DANDOLO",44.431387,8.891850
"0169","0169","JORI 3\BRIN",44.429005,8.892983
"0170","0170","CARICAMENTO\ACQUARIO",44.410555,8.928295
"0171","0171","MONTANO\SAMPIERDARENA FS",44.412923,8.888247
"0172","0172","RETI\STORACE",44.415588,8.885797
"0173","0173","FILLAK 1\MASNATA",44.418393,8.886178
"0174","0174","FILLAK 2\CAMPASSO",44.420100,8.887422
"0175","0175","FILLAK 3\CAPELLO",44.422828,8.889352
"0176","0176","FILLAK 4\CERTOSA",44.426477,8.891903
"0177","0177","SAN QUIRICO 1\MORIGALLO",44.470635,8.903422
"0178","0178","SAN QUIRICO 2\SERRO",44.474443,8.900595
"0179","0179","SAN QUIRICO 3\PONTE BARBIERI",44.476653,8.900520
"0183","0183","SAN QUIRICO 7\FORESTALE",44.489220,8.901487
"0184","0184","ANFOSSI 1",44.491955,8.904540
"0185","0185","ANFOSSI 2\PONTEDECIMO FS",44.495025,8.905217
"0186","0186","ANFOSSI 3\POLI",44.497920,8.904165
"0187","0187","PIAZZA PONTEDECIMO\DEL CANTO",44.499457,8.903417
"0188","0188","GALLINO\CAPOLINEA",44.500987,8.904273
"0189","0189","PIAZZA PONTEDECIMO\PERINO",44.499697,8.903045
"0190","0190","ANFOSSI 1\POLI",44.497050,8.904367
"0191","0191","ANFOSSI 3\PONTEDECIMO FS",44.493998,8.905127
"0192","0192","ANFOSSI 4",44.492402,8.904772
"0193","0193","SAN QUIRICO 1\FORESTALE",44.489855,8.901997
"0196","0196","SAN QUIRICO 4\PONTE BARBIERI",44.476890,8.900558
"0197","0197","SAN QUIRICO 5\SERRO",44.474413,8.900498
"0198","0198","SAN QUIRICO 6\MORIGALLO",44.470290,8.903640
"0199","0199","FERRIERE BRUZZO 1\MERCATO",44.466392,8.905805
"0200","0200","FILLAK 1\CERTOSA",44.426835,8.891992
"0201","0201","FILLAK 2\CAPELLO",44.422683,8.889123
"0202","0202","FILLAK 3\CAMPASSO",44.419757,8.887043
"0203","0203","RETI 1\MASNATA",44.417800,8.885643
"0204","0204","RETI 2\DEGOLA",44.415138,8.885865
"0207","0207","TURATI\METRO' SAN GIORGIO",44.408332,8.928257
"0209","0209","BRIGATA BISAGNO 1\BARABINO",44.401420,8.946173
"0210","0210","BRIGATA BISAGNO 2\BUENOS AIRES",44.402878,8.946843
"0211","0211","DUCA D'AOSTA\BRIGNOLE FS",44.404788,8.947738
"0212","0212","CANEVARI\SANT'AGATA METRO'",44.408137,8.950143
"0213","0213","MORESCO 1\PIAZZA FIRPO",44.411120,8.952860
"0214","0214","MORESCO 2\ROMAGNOSI",44.413038,8.953108
"0215","0215","BOBBIO 1\SCALINATA MONTALDO",44.416575,8.949163
"0216","0216","BOBBIO 2\PONTETTO",44.418045,8.947775
"0217","0217","BOBBIO 3\DA PASSANO",44.421455,8.946877
"0218","0218","BOBBIO 4\MONTALDO",44.423357,8.947105
"0219","0219","BOBBIO 5\CADERIVA",44.425255,8.947365
"0220","0220","PIACENZA 1\CIMITERO STAGLIENO",44.427868,8.950478
"0221","0221","PIACENZA 3\ZUCCHE",44.430427,8.956983
"0222","0222","PIACENZA 4\PONTE BEZZECCA",44.432013,8.958648
"0223","0223","PIACENZA 5\PONTE VERONELLI",44.434035,8.960760
"0224","0224","PIACENZA 6\PONTE CARREGA",44.436210,8.962002
"0225","0225","PIACENZA 7\SAN SEBASTIANO",44.438403,8.962397
"0226","0226","EMILIA 1\PONTE FERITORE",44.442505,8.964188
"0228","0228","EMILIA 3\SAN GOTTARDO",44.445030,8.966877
"0229","0229","EMILIA 4\SCIORBA",44.446362,8.968663
"0230","0230","EMILIA 5\FIDENZA",44.448768,8.971702
"0232","0232","MOLASSANA 2\GEIRATO",44.453940,8.979395
"0233","0233","MOLASSANA 3\GHERZI",44.454498,8.982818
"0234","0234","MOLASSANA 4\BOSCO",44.454432,8.986575
"0235","0235","MOLASSANA 5\COSTA DI SAN SIRO",44.453677,8.989242
"0236","0236","STRUPPA 1\GIRO DEL FULLO",44.452253,8.992130
"0237","0237","STRUPPA 2\SAN BAZA'",44.449693,8.993898
"0238","0238","STRUPPA 3\LIGORNA",44.448670,8.997812
"0239","0239","STRUPPA 4\LUCARNO",44.447872,9.000878
"0240","0240","STRUPPA 5\DORIA",44.447518,9.003637
"0241","0241","STRUPPA 6\CRETO",44.447992,9.006307
"0242","0242","STRUPPA 7\ROSATA",44.448630,9.009352
"0243","0243","STRUPPA 8\TROSSARELLI",44.449052,9.011347
"0244","0244","STRUPPA 9\CANOVA",44.449737,9.015043
"0245","0245","STRUPPA 10\SUPPINI",44.449650,9.017657
"0246","0246","PRATO\PIAN MARTELLO",44.449527,9.020917
"0247","0247","STRUPPA 2\CANOVA",44.449638,9.014040
"0248","0248","STRUPPA 3\TROSSARELLI",44.449058,9.011143
"0249","0249","STRUPPA 4\ROSATA",44.448500,9.008522
"0250","0250","STRUPPA 5\CRETO",44.448127,9.006678
"0251","0251","STRUPPA 6\DORIA",44.447577,9.003275
"0252","0252","STRUPPA 7\LUCARNO",44.448198,8.999795
"0253","0253","STRUPPA 8\LIGORNA",44.448867,8.997245
"0254","0254","STRUPPA 9\SAN BAZA'",44.449532,8.994637
"0255","0255","STRUPPA 10\GIRO DEL FULLO",44.452268,8.992235
"0256","0256","MOLASSANA 1\COSTA DI SAN SIRO",44.453867,8.988668
"0257","0257","MOLASSANA 2\BOSCO",44.454682,8.985530
"0258","0258","MOLASSANA 3\GHERZI",44.454493,8.982193
"0259","0259","MOLASSANA 4\GEIRATO",44.453907,8.979002
"0260","0260","MOLASSANA 5\EMILIA",44.451610,8.974513
"0261","0261","PIACENZA 1\ROCCA",44.448968,8.970902
"0262","0262","PIACENZA 2\FIDENZA",44.447565,8.968762
"0263","0263","PIACENZA 3\SAN GOTTARDO",44.445908,8.966383
"0264","0264","PIACENZA 4\FOSSATO CICALA",44.444240,8.964828
"0265","0265","PIACENZA 5\PONTE FERITORE",44.442213,8.963523
"0266","0266","PIACENZA 6\SAN SEBASTIANO",44.437687,8.962057
"0267","0267","PIACENZA 7\PONTE CARREGA",44.436225,8.961912
"0268","0268","PIACENZA 8\PONTE VERONELLI",44.434233,8.960860
"0269","0269","PIACENZA 9\PONTE BEZZECCA",44.432392,8.958948
"0270","0270","PIACENZA 10\ZUCCHE",44.430128,8.956483
"0271","0271","PIACENZA 12\CIMITERO STAGLIENO",44.427767,8.949792
"0272","0272","BOBBIO 1\CADERIVA",44.424518,8.947117
"0273","0273","BOBBIO 2\MONTALDO",44.423177,8.946917
"0274","0274","BOBBIO 3\DA PASSANO",44.421050,8.946690
"0275","0275","BOBBIO 4\PONTETTO",44.417317,8.948128
"0276","0276","BOBBIO 5\STADIO",44.416207,8.949637
"0277","0277","CANEVARI 1\ROMAGNOSI",44.413448,8.951608
"0278","0278","CANEVARI 2\PIAZZA FIRPO",44.410587,8.951930
"0279","0279","CANEVARI 4\SANT'AGATA METRO'",44.407618,8.949428
"0280","0280","DUCA D'AOSTA\BRIGNOLE FS",44.404902,8.947235
"0283","0283","BRIGATE PARTIGIANE 1\GESTRO",44.397667,8.944447
"0284","0284","BRIGATE PARTIGIANE 2\RUSPOLI",44.399482,8.945295
"0285","0285","GNEO 2",44.444058,8.854463
"0286","0286","BRIGATE PARTIGIANE 1\DIAZ",44.399785,8.944903
"0287","0287","BRIGATE PARTIGIANE 2\CECCHI",44.398337,8.944178
"0288","0288","MOLASSANA\CAPOLINEA",44.454565,8.979623
"0289","0289","GNEO 2",44.444138,8.854390
"0290","0290","IST NORD\CENTRO CONVEGNI",44.410495,8.974423
"0291","0291","PIAZZA DANTE",44.405092,8.936203
"0292","0292","MACAGGI\CESAREA",44.402127,8.942223
"0293","0293","CADORNA\PIAZZA DELLA VITTORIA",44.404640,8.944925
"0294","0294","XX SETTEMBRE 1\MERC. ORIENTALE",44.405470,8.941450
"0295","0295","XX SETTEMBRE 2\PORTORIA",44.406267,8.938158
"0296","0296","RESASCO\CAPOLINEA",44.428792,8.953450
"0298","0298","BUENOS AIRES 1\LAMBRUSCHINI",44.403652,8.948212
"0299","0299","BUENOS AIRES 2\CASAREGIS",44.402675,8.951818
"0300","0300","TOMMASEO\MONTESUELLO",44.402033,8.953835
"0301","0301","POZZO 1\DASSORI",44.402880,8.955808
"0302","0302","POZZO 2\FASCE",44.402682,8.956015
"0303","0303","POZZO 3\TRENTO",44.400613,8.956625
"0304","0304","ALBARO\CAUSA",44.399810,8.959682
"0305","0305","LEONARDO DA VINCI",44.397588,8.965030
"0306","0306","BOSELLI\GUERRAZZI",44.396913,8.967488
"0307","0307","PISA\GIORDANO BRUNO",44.395995,8.973110
"0308","0308","CAPRERA\ORSINI",44.395240,8.975365
"0309","0309","GEIRATO 8\RIO LAGOLUNGO",44.466275,8.987702
"0310","0310","MILLE\BRIGATA SALERNO",44.392970,8.983793
"0311","0311","V MAGGIO 1\OSPEDALE GASLINI",44.391227,8.988555
"0312","0312","V MAGGIO 2\CARRARA",44.389713,8.991457
"0313","0313","V MAGGIO 3\VILLA CARRARA",44.389160,8.993927
"0314","0314","V MAGGIO 4\QUARTO FS",44.387655,8.995402
"0315","0315","QUARTO 1\PRIARUGGIA",44.386685,8.998048
"0316","0316","QUARTO 2\CAPO SAN ROCCO",44.386905,8.999703
"0317","0317","QUARTO 3\QUARTARA",44.386488,9.002548
"0318","0318","QUARTO 4\FABRIZI",44.385857,9.007722
"0319","0319","QUINTO\BAGNARA",44.385560,9.012593
"0320","0320","GIANELLI 1\BOLZANO",44.384960,9.016410
"0321","0321","GIANELLI 2\QUINTO FS",44.384172,9.019920
"0322","0322","MURCAROLO\ROMANA DI MURCAROLO",44.383152,9.024602
"0323","0323","OBERDAN 1\SANTAROSA",44.382817,9.028645
"0324","0324","OBERDAN 2\PONTE DI NERVI",44.384813,9.032792
"0325","0325","OBERDAN 4\DUCA DEGLI ABRUZZI",44.384363,9.035413
"0329","0329","OBERDAN 4\SANTAROSA",44.382952,9.028993
"0330","0330","GIANELLI 1\ROMANA DI MURCAROLO",44.383365,9.023950
"0331","0331","GIANELLI\CAPOLINEA",44.384278,9.019782
"0332","0332","GIANELLI 3\BOLZANO",44.384973,9.016708
"0333","0333","QUINTO\BAGNARA",44.385412,9.011800
"0334","0334","QUARTO 1\FABRIZI",44.385990,9.007237
"0335","0335","QUARTO 2\QUARTARA",44.386523,9.002398
"0336","0336","QUARTO 3\CAPO SAN ROCCO",44.386955,9.000892
"0337","0337","V MAGGIO 1\PRIARUGGIA",44.387658,8.997312
"0338","0338","V MAGGIO 2\QUARTO FS",44.388282,8.994512
"0339","0339","V MAGGIO 3\VILLA CARRARA",44.389708,8.992398
"0340","0340","V MAGGIO 4\CARRARA",44.389985,8.991087
"0341","0341","V MAGGIO 6\OSPEDALE GASLINI",44.391443,8.988030
"0342","0342","V MAGGIO 7\REDIPUGLIA",44.392242,8.985588
"0343","0343","PIAZZA STURLA\CAPRERA",44.394918,8.979778
"0344","0344","CAPRERA\ORSINI",44.395362,8.975292
"0345","0345","PISA\AMALFI",44.396210,8.972657
"0346","0346","BOSELLI\GUERRAZZI",44.396785,8.968580
"0347","0347","LEONARDO DA VINCI",44.397833,8.964695
"0348","0348","ALBARO\CAUSA",44.400120,8.959015
"0349","0349","POZZO 1\TRENTO",44.400863,8.955995
"0350","0350","POZZO 2\FASCE",44.402718,8.956315
"0351","0351","POZZO 3\DASSORI",44.403042,8.955863
"0352","0352","TOMMASEO\MONTESUELLO",44.402210,8.953747
"0353","0353","BUENOS AIRES 1\DA NOVI",44.403120,8.950607
"0354","0354","BUENOS AIRES 2\LAMBRUSCHINI",44.403735,8.948388
"0355","0355","DANTE 2\CASA DI COLOMBO",44.405617,8.935180
"0356","0356","IST NORD\CENTRO CONVEGNI",44.410712,8.974170
"0357","0357","GEIRATO 1\RIO LAGOLUNGO",44.466240,8.987290
"0360","0360","BRIGNOLE FS",44.405772,8.946915
"0361","0361","INVREA 2\CASAREGIS",44.404203,8.952315
"0362","0362","ODESSA\ALIMONDA",44.403718,8.955305
"0363","0363","GASTALDI 1\PONTE DI TERRALBA",44.404605,8.959867
"0364","0364","GASTALDI 2\CASA DELLO STUDENTE",44.404552,8.964392
"0365","0365","EUROPA 1\OSPEDALE SAN MARTINO",44.406368,8.971185
"0366","0366","EUROPA 2\PRONTO SOCCORSO",44.407562,8.975462
"0367","0367","EUROPA 3\PIAZZETTA",44.404997,8.981353
"0368","0368","EUROPA 4\ISONZO",44.402685,8.984242
"0369","0369","EUROPA 5\SWINBURNE",44.399312,8.989278
"0370","0370","EUROPA 6\SHELLEY",44.398645,8.991475
"0371","0371","EUROPA 7\CARRARA",44.396323,8.993272
"0372","0372","EUROPA 8\PIAZZA NIEVO",44.394397,8.996283
"0373","0373","EUROPA 9\SCHIAFFINO",44.394253,9.001128
"0374","0374","EUROPA 10\QUARTO CASTAGNA",44.394707,9.003427
"0375","0375","EUROPA 11\AUTOSTRADA",44.393337,9.006800
"0376","0376","EUROPA 12\TOGLIATTI",44.391975,9.009408
"0377","0377","EUROPA 13\MAJORANA",44.389900,9.012350
"0378","0378","EUROPA 14\SAN PIETRO",44.387512,9.016520
"0379","0379","EUROPA 15\QUINTO",44.386098,9.019500
"0380","0380","EUROPA 16\CABRUNA",44.385177,9.022983
"0381","0381","EUROPA 17\OSPEDALE DI NERVI",44.384032,9.028082
"0382","0382","PITTALUGA\NERVI FS",44.383762,9.040432
"0383","0383","CASOTTI\VILLA GROPALLO",44.383032,9.043972
"0384","0384","CAPOLUNGO 1\VILLA SERRA",44.382222,9.045765
"0385","0385","CAPOLUNGO 3\ANCONA",44.381092,9.050222
"0386","0386","AURELIA 1\STAZIONE SANT'ILARIO",44.380948,9.052998
"0387","0387","AURELIA 2\SOMMA",44.380810,9.054920
"0388","0388","SOMMA 1\CAPOLUNGO",44.382438,9.052303
"0389","0389","SOMMA 3\SANT'ILARIO",44.383653,9.046880
"0390","0390","SOMMA 4\RAVINA",44.384985,9.043052
"0391","0391","SOMMA 5\VASSALLI",44.385153,9.039550
"0392","0392","SOMMA 6\DUCA DEGLI ABRUZZI",44.385365,9.036072
"0393","0393","OBERDAN 3\PONTE DI NERVI",44.384493,9.032147
"0394","0394","EUROPA 1\OSPEDALE DI NERVI",44.384297,9.027483
"0395","0395","EUROPA 2\CABRUNA",44.385313,9.022927
"0396","0396","EUROPA 3\QUINTO",44.386482,9.018792
"0397","0397","EUROPA 4\SAN PIETRO",44.387565,9.016727
"0398","0398","EUROPA 5\MAJORANA",44.390427,9.011863
"0399","0399","EUROPA 6\TOGLIATTI",44.392055,9.009580
"0400","0400","EUROPA 7\AUTOSTRADA",44.394078,9.005863
"0401","0401","EUROPA 8\QUARTO CASTAGNA",44.394903,9.002550
"0402","0402","EUROPA 9\SCHIAFFINO",44.394123,8.999995
"0403","0403","EUROPA 10\PIAZZA NIEVO",44.394543,8.996673
"0404","0404","EUROPA 11\CARRARA",44.395532,8.993812
"0405","0405","EUROPA 12\SHELLEY",44.398702,8.991255
"0406","0406","EUROPA 13\SWINBURNE",44.399537,8.989028
"0407","0407","EUROPA 14\TIMAVO",44.402892,8.983940
"0408","0408","EUROPA 15\PIAZZETTA",44.405285,8.981140
"0409","0409","EUROPA 16\PRONTO SOCCORSO",44.407473,8.974988
"0410","0410","EUROPA 17\OSPEDALE SAN MARTINO",44.405908,8.970002
"0411","0411","GASTALDI 1\BENEDETTO XV",44.404925,8.966628
"0412","0412","GASTALDI 2\CASA DELLO STUDENTE",44.404667,8.964118
"0413","0413","GASTALDI 3\PONTE DI TERRALBA",44.404708,8.958312
"0414","0414","TOLEMAIDE 1\TORINO",44.404720,8.953113
"0415","0415","TOLEMAIDE 2\ARCHIMEDE",44.405200,8.950337
"0416","0416","BRIGNOLE FS",44.406497,8.945995
"0417","0417","FIUME\XX SETTEMBRE",44.404913,8.944353
"0419","0419","COMMERCIO\CAPOLINEA",44.386210,9.031528
"0420","0420","BIANCHI 2\PERINI",44.421835,8.883460
"0422","0422","THAON DI REVEL\BRIGNOLE FS",44.405843,8.945267
"0423","0423","MOSSO\PRONTO SOCCORSO",44.408172,8.975162
"0424","0424","TORTI 1\BARRILI",44.405830,8.966022
"0425","0425","TORTI 2\MANUZIO",44.407165,8.963305
"0426","0426","TORTI 3\TERRALBA",44.407293,8.960455
"0427","0427","MARTINEZ\GIACOMETTI",44.406853,8.956462
"0428","0428","GIUSTI\SARDEGNA",44.407443,8.952562
"0430","0430","ROMA\CORVETTO",44.409628,8.937340
"0431","0431","PORTELLO\CAFFARO",44.411557,8.933992
"0432","0432","ZECCA\CARMINE",44.413285,8.930095
"0433","0433","PRINCIPE FS",44.416425,8.922220
"0435","0435","NUNZIATA",44.413520,8.928445
"0436","0436","PORTELLO\INTERIANO",44.411363,8.934440
"0437","0437","GIACOMO E FILIPPO\CORVETTO",44.409988,8.939237
"0438","0438","DE AMICIS\PIAZZA BRIGNOLE",44.408393,8.944393
"0439","0439","BRIGNOLE FS",44.405872,8.946950
"0441","0441","GIACOMETTI\PIAZZA GIUSTI",44.407015,8.954115
"0442","0442","MARTINEZ\CASONI",44.406440,8.956817
"0443","0443","TERRALBA\TORTI",44.406995,8.960942
"0444","0444","TORTI\DONGHI",44.406820,8.964663
"0445","0445","BARRILI\TORTI",44.405758,8.965812
"0446","0446","SAN MARTINO 1\UNIVERSITA'",44.404817,8.967873
"0447","0447","SAN MARTINO 2\PAPIGLIANO",44.405693,8.970760
"0448","0448","SAN MARTINO 3\RAI",44.406213,8.972960
"0449","0449","LAGUSTENA 1\CHIESA SAN MARTINO",44.405507,8.976053
"0450","0450","OSPEDALE SAN MARTINO\CAPOLINEA",44.406813,8.969238
"0451","0451","PRINCIPE FS\CAPOLINEA",44.416495,8.922010
"0452","0452","FANTI D'ITALIA\PRINCIPE FS",44.416313,8.918927
"0453","0453","PERINI\CAMPI",44.422945,8.883395
"0455","0455","FONTANE MAROSE",44.410162,8.934960
"0458","0458","ROBINO 1\AMEGLIO",44.419472,8.957158
"0459","0459","XX SETTEMBRE 2\MONUMENTALE",44.405957,8.938920
"0460","0460","XX SETTEMBRE 3\MERC. ORIENTALE",44.405315,8.941582
"0461","0461","CADORNA\PIAZZA DELLA VITTORIA",44.404545,8.944758
"0462","0462","TORINO 1\SAVONAROLA",44.402062,8.950595
"0463","0463","TORINO 2\BARABINO",44.400138,8.949650
"0464","0464","TORINO 3\RUSPOLI",44.398282,8.948775
"0465","0465","RIMASSA\MORIN",44.397030,8.948460
"0466","0466","TORINO 1\RUSPOLI",44.398402,8.948962
"0467","0467","TORINO 2\BARABINO",44.400113,8.949775
"0469","0469","MONTANO\SAMPIERDARENA FS",44.412803,8.888143
"0471","0471","TRAVI 2\MENOTTI",44.423900,8.849053
"0472","0472","BORZOLI 1\SAN NICOLA",44.423615,8.854735
"0473","0473","SPARTA",44.425118,8.856978
"0474","0474","SANT'ELIA 1\SANTA CRISTINA",44.425335,8.858517
"0475","0475","SANT'ELIA 2",44.425928,8.858642
"0476","0476","SANT'ELIA 3",44.425213,8.860012
"0477","0477","SANT'ELIA 4",44.425615,8.861933
"0478","0478","SANT'ELIA 2",44.425327,8.859890
"0479","0479","SANT'ELIA 3",44.425938,8.858490
"0480","0480","SANT'ELIA 4\SANTA CRISTINA",44.425307,8.858027
"0481","0481","SPARTA",44.424962,8.856742
"0482","0482","BORZOLI 12\SAN NICOLA",44.423973,8.854815
"0483","0483","TRAVI 1\SESTRI FS AEROPORTO",44.422905,8.848563
"0484","0484","MARCONI 1\FIERA",44.396028,8.944460
"0485","0485","MARCONI 2\RIMASSA",44.395113,8.948095
"0486","0486","ITALIA 1\PUNTA VAGNO",44.393002,8.951128
"0487","0487","ITALIA 2\PIAVE",44.391980,8.954447
"0488","0488","ITALIA 3\ZARA",44.391820,8.958048
"0489","0489","ITALIA 4\SAURO",44.392802,8.962670
"0490","0490","ITALIA 5\LIDO",44.390895,8.968473
"0491","0491","CAVALLOTTI 1\DE GASPARI",44.391688,8.974492
"0492","0492","CAVALLOTTI 2\CAPRERA",44.394607,8.975540
"0494","0494","CAVALLOTTI 1\MONLEONE",44.394210,8.975238
"0495","0495","CAVALLOTTI 2\BOCCADASSE",44.390653,8.973987
"0496","0496","ITALIA 1\LIDO",44.391047,8.968578
"0497","0497","ITALIA 2\SAURO",44.392917,8.962332
"0498","0498","ITALIA 3\ZARA",44.391897,8.957633
"0499","0499","ITALIA 5\PIAVE",44.392513,8.953103
"0500","0500","ITALIA 6\PUNTA VAGNO",44.393548,8.950825
"0501","0501","MARCONI 1\RIMASSA",44.395327,8.948205
"0502","0502","MARCONI 2\FIERA",44.396043,8.945232
"0504","0504","FIESCHI\DANTE",44.405320,8.936655
"0506","0506","CARIGNANO\ALGHERO",44.402035,8.934188
"0508","0508","DINEGRO\MERCATO",44.413167,8.910292
"0509","0509","VENEZIA 1\SOPRANIS",44.416085,8.910173
"0510","0510","VENEZIA 2\ALIZERI",44.417825,8.910102
"0511","0511","BOLOGNA 1\SAN MARCELLINO",44.418383,8.909135
"0512","0512","BOLOGNA 2\FAENZA",44.419070,8.907702
"0513","0513","BOLOGNA 3\PESTARINO",44.419978,8.908975
"0514","0514","BOLOGNA 5\LUGO",44.419202,8.911722
"0515","0515","S.F. DA PAOLA",44.419327,8.914997
"0516","0516","BOLOGNA 1\LUGO",44.419023,8.911335
"0517","0517","BOLOGNA 3\PESTARINO",44.420102,8.909197
"0518","0518","BOLOGNA 4\FAENZA",44.419172,8.907493
"0519","0519","BOLOGNA 5\SAN MARCELLINO",44.418482,8.909150
"0520","0520","VENEZIA 1\ALIZERI",44.417560,8.910243
"0521","0521","VENEZIA 2\SOPRANIS",44.415617,8.909973
"0522","0522","DINEGRO\MERCATO",44.413012,8.909597
"0525","0525","ASSAROTTI 2\PROVVEDITORATO",44.412120,8.943243
"0526","0526","MANIN\ARMELLINI",44.414093,8.946712
"0527","0527","ARMELLINI\ISTITUTO CHIOSSONE",44.413353,8.944113
"0528","0528","SOLFERINO\OSPEDALE EVANGELICO",44.413883,8.941085
"0529","0529","MAGENTA 1\SANTA MARIA SANITA'",44.413400,8.938273
"0530","0530","MAGENTA 2\SANT'ANNA",44.414642,8.936988
"0531","0531","PAGANINI\PONTE CAFFARO",44.415818,8.935322
"0532","0532","VILLA\SPIANATA CASTELLETTO",44.414447,8.933473
"0533","0533","FIRENZE 2\GIARDINI ROSSI",44.418022,8.934210
"0534","0534","FIRENZE 3\SALVAGO",44.418210,8.932878
"0535","0535","FIRENZE 4\SAN NICOLA",44.419870,8.930895
"0536","0536","FIRENZE 5\PELLIZZARI",44.420102,8.928633
"0537","0537","FIRENZE 6\SAN BARNABA",44.418658,8.927848
"0538","0538","DOGALI 2\BASSI",44.418845,8.924847
"0539","0539","BASSI 1\SPINOLA",44.420205,8.925655
"0540","0540","BASSI 2\OSSERVATORIO",44.419500,8.922613
"0541","0541","SANT'UGO\FERREIRA",44.419270,8.923812
"0542","0542","PROVVIDENZA\AVEZZANA",44.417870,8.921608
"0544","0544","ASSAROTTI 1\CALATAFIMI",44.410840,8.940212
"0545","0545","SANT'UGO\ALMERIA",44.419343,8.924130
"0546","0546","ALMERIA\OSSERVATORIO",44.419385,8.923015
"0547","0547","BASSI\GIARDINI MONTALE",44.420088,8.925445
"0548","0548","FIRENZE 1\DOGALI",44.418592,8.925382
"0549","0549","FIRENZE 2\SAN BARNABA",44.418728,8.927990
"0550","0550","FIRENZE 3\PELLIZZARI",44.420290,8.929123
"0551","0551","FIRENZE 4\SAN NICOLA",44.419607,8.930953
"0552","0552","FIRENZE 5\SALVAGO",44.418308,8.933293
"0553","0553","FIRENZE 6\GIARDINI ROSSI",44.417787,8.933872
"0554","0554","VILLA\SPIANATA CASTELLETTO",44.414383,8.933618
"0555","0555","MAGENTA 1\SANT'ANNA",44.414668,8.937682
"0556","0556","MAGENTA 2\SANTA MARIA SANITA'",44.413165,8.938842
"0557","0557","SOLFERINO\OSPEDALE EVANGELICO",44.413722,8.941237
"0558","0558","ARMELLINI 2\MANIN",44.413912,8.946192
"0559","0559","ASSAROTTI\PESCHIERA",44.411698,8.942000
"0561","0561","MONTALDO 1\DA PASSANO",44.420770,8.945577
"0562","0562","MONTALDO 2\SALITA MELONI",44.418988,8.946023
"0563","0563","MONTALDO 3\CHIAPPAZZO",44.417065,8.947180
"0564","0564","MONTALDO 4\SCALINATA MONTALDO",44.415512,8.948110
"0565","0565","MANIN",44.413757,8.946748
"0566","0566","CORVETTO\PIAGGIO",44.410290,8.938127
"0567","0567","MOLASSANA 1\OLMO",44.453267,8.977852
"0568","0568","PRINCIPE FS",44.416382,8.922452
"0569","0569","CANEVARI 3\MONTEGRAPPA",44.408548,8.950322
"0570","0570","MANIN",44.413788,8.947048
"0571","0571","MONTALDO 1\SCALINATA MONTALDO",44.415738,8.948103
"0572","0572","MONTALDO 2\CHIAPPAZZO",44.417435,8.947010
"0573","0573","MONTALDO 3\SALITA MELONI",44.419102,8.946080
"0574","0574","MONTALDO 4\DA PASSANO",44.420987,8.945668
"0575","0575","MONTALDO 5\BOBBIO",44.422720,8.946557
"0576","0576","VANNUCCI\MUSEO VILLA CROCE",44.397742,8.939302
"0577","0577","MURA CAPPUCCINE\VANNUCCI",44.397865,8.942640
"0578","0578","VOLTA 1\GALLIERA CUP",44.399083,8.942407
"0579","0579","VOLTA 2\OSPEDALE GALLIERA",44.400928,8.941425
"0580","0580","MURA DI SANTA CHIARA\ALESSI",44.402557,8.939215
"0581","0581","CORSICA\BIXIO",44.401073,8.937193
"0582","0582","INNOCENZO IV\CARIGNANO",44.402383,8.934978
"0583","0583","ARSENALE\PRINCIPE FS",44.416603,8.923358
"0584","0584","SPINOLA\BASSI",44.421088,8.925785
"0585","0585","NAPOLI 1\SPINOLA",44.422277,8.925957
"0586","0586","NAPOLI 2\SAPORITI",44.420700,8.923373
"0587","0587","NAPOLI 3\BOINE",44.421515,8.921520
"0588","0588","NAPOLI 4\GAETA",44.422452,8.920270
"0589","0589","NAPOLI 5\VESUVIO",44.424528,8.921448
"0590","0590","NAPOLI 6\SCUOLA MAZZA",44.424833,8.919265
"0592","0592","BARI 1\TARANTO",44.424837,8.915223
"0593","0593","BARI 2\BRINDISI",44.422593,8.916438
"0594","0594","BARI 4\ASCENSORE CREMAGLIERA",44.420147,8.916062
"0595","0595","BARI 1\ASCENSORE CREMAGLIERA",44.420442,8.916425
"0597","0597","BARI 3\TARANTO",44.424872,8.915347
"0599","0599","NAPOLI 1\SCUOLA MAZZA",44.424748,8.919145
"0600","0600","NAPOLI 2\VESUVIO",44.424392,8.921157
"0601","0601","NAPOLI 3\GAETA",44.422785,8.919963
"0602","0602","NAPOLI 4\BOINE",44.421418,8.921017
"0603","0603","NAPOLI 5\SAPORITI",44.420642,8.923537
"0604","0604","NAPOLI 6\SPINOLA",44.421797,8.925535
"0605","0605","CORSICA\MENTANA",44.401393,8.937622
"0606","0606","MURA DI SANTA CHIARA\ALESSI",44.402328,8.939358
"0607","0607","VOLTA 1\OSPEDALE GALLIERA",44.400640,8.941463
"0608","0608","VOLTA 2\GALLIERA CUP",44.399065,8.942307
"0609","0609","MURA CAPPUCCINE\VANNUCCI",44.397822,8.942248
"0610","0610","VESUVIO 1\CHIESA",44.425998,8.922907
"0611","0611","VESUVIO 2\CAPRI",44.425543,8.920432
"0612","0612","VESUVIO\CAPOLINEA INFERIORE",44.425603,8.919110
"0613","0613","VESUVIO 3\CAPRI",44.425447,8.920382
"0614","0614","VESUVIO 4\CHIESA",44.425648,8.922513
"0617","0617","NIZZA 1\SAN PIETRO",44.394517,8.950612
"0618","0618","NIZZA 2\SCALINATA GUERRIERI",44.398120,8.952242
"0620","0620","NIZZA 1\SCALINATA GUERRIERI",44.397950,8.951820
"0621","0621","NIZZA 2\SAN PIETRO",44.394352,8.950863
"0626","0626","TORINO 4\TOLEMAIDE",44.404640,8.952050
"0627","0627","SARDEGNA 1\PIAZZA GIUSTI",44.407668,8.953432
"0628","0628","SARDEGNA 2\CHIESA SANTA FEDE",44.411455,8.955267
"0629","0629","SARDEGNA 3\BONIFACIO",44.413395,8.956192
"0630","0630","DE STEFANIS 1\MONTICELLI",44.415587,8.955847
"0631","0631","DE STEFANIS 2\BERTUCCIONI",44.416793,8.954353
"0633","0633","RICCA\SALITA SPAGNOLETTA",44.418565,8.954083
"0634","0634","PLATANI\SCUOLA",44.420107,8.952367
"0635","0635","RICCA\SALITA SPAGNOLETTA",44.418498,8.954503
"0636","0636","BERTUCCIONI 1\GUICCIARDINI",44.418305,8.956235
"0637","0637","BERTUCCIONI 2\DE STEFANIS",44.417120,8.954195
"0638","0638","DE STEFANIS 5\MONTICELLI",44.415487,8.955732
"0639","0639","SARDEGNA 1\BONIFACIO",44.413543,8.955908
"0640","0640","SARDEGNA 2\CAGLIARI",44.412098,8.955222
"0641","0641","SARDEGNA 3\NICOLODI",44.410252,8.954388
"0642","0642","ARCHIMEDE\ASL",44.406785,8.952107
"0644","0644","GUICCIARDINI\PASSO BRACELLI",44.418397,8.956953
"0645","0645","MONTICELLI 2\SARDEGNA",44.414873,8.955923
"0646","0646","SAN MARINO 1\FERRARA",44.421993,8.908863
"0647","0647","SAN MARINO 2",44.423918,8.908468
"0648","0648","SAN MARINO 3\MARZABOTTO",44.425950,8.908412
"0649","0649","CADUTI SENZA CROCE",44.426310,8.908815
"0650","0650","GRANAROLO\CAPOLINEA",44.424872,8.911163
"0651","0651","CADUTI SENZA CROCE",44.426527,8.908360
"0652","0652","SAN MARINO 1\MARZABOTTO",44.425212,8.908663
"0653","0653","SAN MARINO 2",44.423757,8.908277
"0654","0654","FERRARA",44.421425,8.909217
"0655","0655","BRIGNOLE FS\CAPOLINEA",44.406012,8.946058
"0656","0656","NUNZIATA\BANDIERA",44.413897,8.928585
"0657","0657","BRIGNOLE DE FERRARI\CARMINE",44.414838,8.929088
"0658","0658","ALBERGO DEI POVERI\UNIVERSITA'",44.417240,8.928845
"0659","0659","DOGALI 1\KASSALA",44.417815,8.926458
"0660","0660","SAPORITI\NAPOLI",44.421757,8.925252
"0661","0661","PALEOCAPA 1\BASSANO",44.423563,8.927345
"0662","0662","PALEOCAPA 2\PIAZZA OREGINA",44.423302,8.924972
"0663","0663","CARBONE\CASACCIA",44.425250,8.927347
"0664","0664","DELLA CELLA\MACULANO",44.425607,8.927028
"0665","0665","BALESTRAZZI 1\BELVEDERE",44.424838,8.924438
"0666","0666","BALESTRAZZI 2\ISCHIA",44.426570,8.925130
"0667","0667","VESUVIO 1\PERALTO",44.428610,8.924270
"0668","0668","VESUVIO 2\CASE INA",44.427167,8.922240
"0669","0669","VESUVIO\CAPOLINEA SUPERIORE",44.426442,8.920747
"0670","0670","VESUVIO 3\CASE INA",44.427405,8.922810
"0671","0671","VESUVIO 4\PERALTO",44.428697,8.924553
"0672","0672","BALESTRAZZI\ISCHIA",44.426465,8.925032
"0674","0674","DELLA CELLA\MACULANO",44.425743,8.927423
"0675","0675","CARBONE\CASACCIA",44.425082,8.926937
"0676","0676","PALEOCAPA 1\PIAZZA OREGINA",44.423355,8.925140
"0677","0677","PALEOCAPA 2\BASSANO",44.423327,8.927165
"0678","0678","SAPORITI\NAPOLI",44.421680,8.925075
"0679","0679","DOGALI 1\BASSI",44.418310,8.925503
"0680","0680","ALBERGO DEI POVERI\UNIVERSITA'",44.417108,8.929208
"0681","0681","BRIGNOLE DE FERRARI\CARMINE",44.414687,8.929510
"0682","0682","GIUSSO 1\BELVEDERE",44.424828,8.924697
"0683","0683","COSTANZI 1\GIUSSO",44.426993,8.927123
"0684","0684","COSTANZI 3\FUMAGALLI",44.427898,8.927848
"0685","0685","COSTANZI 4\OSTELLO",44.428048,8.928740
"0686","0686","BELVEDERE DA PASSANO\GIUSSO",44.424553,8.924360
"0687","0687","ORSINI 1\CAPRERA",44.395355,8.975822
"0688","0688","ORSINI 2\SAN PIO X",44.398397,8.975907
"0689","0689","ORSINI 3\PARODI",44.400310,8.975570
"0690","0690","ORSINI 4\STURLA",44.401638,8.977643
"0691","0691","STURLA 3\MARRAS",44.399618,8.978862
"0692","0692","ISONZO 1\STURLA FS",44.397582,8.980923
"0693","0693","RAGAZZI DEL 99\CAPOLINEA",44.399470,8.981557
"0694","0694","ISONZO 3\STURLA FS",44.397273,8.980633
"0695","0695","STURLA 2\MARRAS",44.399800,8.978928
"0696","0696","ORSINI 1\STURLA",44.401648,8.977395
"0697","0697","ORSINI 2\PARODI",44.400262,8.975245
"0698","0698","ORSINI 3\SAN PIO X",44.398780,8.975483
"0700","0700","DIAZ\BRIGATE PARTIGIANE",44.400652,8.946247
"0701","0701","BARABINO\TORINO",44.399915,8.949305
"0702","0702","PALERMO\PARETO",44.399083,8.952718
"0703","0703","ROSSELLI 1\PIAVE",44.394480,8.955080
"0704","0704","ROSSELLI 2\ZARA",44.393975,8.957477
"0705","0705","GOBETTI\SAURO",44.394198,8.960825
"0706","0706","RIGHETTI\MINZONI",44.394077,8.966982
"0707","0707","DE GASPARI 1\BRUNO",44.392642,8.970723
"0708","0708","DE GASPARI 2\BOCCADASSE",44.391127,8.973827
"0709","0709","BRUNO 1\ITALIA",44.390927,8.969542
"0711","0711","RIGHETTI\PEROSI",44.394195,8.967002
"0712","0712","GOBETTI 1\SAURO",44.394368,8.961027
"0713","0713","GOBETTI 2\ZARA",44.394030,8.958313
"0714","0714","ROSSELLI\PIAVE",44.394885,8.955067
"0715","0715","BARABINO 1\PALERMO",44.399488,8.951548
"0716","0716","BARABINO 3\CIPRO",44.400607,8.946913
"0717","0717","BRIGATA LIGURIA 2\FIUME",44.404297,8.944083
"0718","0718","THAON DI REVEL\BRIGNOLE FS",44.405533,8.946422
"0719","0719","CORRIDONI 2\MONTALLEGRO",44.403053,8.962895
"0720","0720","MONTEZOVETTO 1\CUS",44.401290,8.964013
"0721","0721","MONTEZOVETTO 2\SCUOLE",44.399112,8.964555
"0724","0724","BRIGATA SALERNO\ERA",44.395555,8.984820
"0725","0725","ROMANA DI QUARTO 1\CEMBRANO",44.398530,8.989215
"0726","0726","ROMANA DI QUARTO 2\FRANGIONI",44.398140,8.990902
"0727","0727","CIMAROSA\GIOVANNI MAGGIO",44.396345,8.992940
"0730","0730","SCHIAFFINO\NIEVO",44.394162,8.998297
"0731","0731","PRASCA\CHIESA",44.396450,8.996900
"0732","0732","CARRARA 1\PRASCA",44.396640,8.996495
"0733","0733","CARRARA 2\TURR",44.395682,8.994308
"0734","0734","ROMANA DI QUARTO 1\FRANGIONI",44.398232,8.991777
"0735","0735","ROMANA DI QUARTO 2\CEMBRANO",44.398735,8.988475
"0736","0736","ERA\BRIGATA SALERNO",44.395520,8.984218
"0737","0737","LEONARDO DA VINCI",44.397842,8.965063
"0738","0738","MONTEZOVETTO 1\SCUOLE",44.399337,8.964618
"0739","0739","MONTEZOVETTO 2\CUS",44.401433,8.964102
"0740","0740","CORRIDONI 1\MONTALLEGRO",44.403335,8.962880
"0743","0743","TOMMASEO\MONTEVIDEO",44.402475,8.954475
"0744","0744","LAGUSTENA 2\MOSSO",44.407645,8.977083
"0745","0745","BORGORATTI 1\SAPETO",44.407530,8.979405
"0746","0746","BORGORATTI 2\BOERO",44.405352,8.982295
"0747","0747","POSALUNGA 1\TIMAVO",44.404353,8.984645
"0748","0748","POSALUNGA 2\SCUOLA",44.406498,8.986867
"0749","0749","ROTONDA\CADIGHIARA",44.408913,8.988487
"0750","0750","ROTONDA\CAPOLINEA",44.408825,8.988328
"0751","0751","POSALUNGA 1\SCUOLA",44.406478,8.986765
"0752","0752","POSALUNGA 2\TIMAVO",44.404415,8.984768
"0753","0753","BORGORATTI 1\SAN ROCCO",44.404847,8.983318
"0754","0754","BORGORATTI 2\SAPETO",44.407532,8.979613
"0755","0755","LAGUSTENA\MOSSO",44.407543,8.976962
"0756","0756","SAN MARTINO\PUGGIA",44.405458,8.975393
"0757","0757","SCRIBANTI\SALITA DELLA NOCE",44.406788,8.974837
"0758","0758","TOMMASEO\CAFFA",44.402367,8.953532
"0759","0759","STURLA 1\SAN MARTINO",44.404990,8.975962
"0760","0760","STURLA 2\ORSINI",44.402008,8.978163
"0761","0761","STURLA 4\STURLA FS",44.397068,8.980570
"0762","0762","STURLA 5\ISTITUTO KING",44.396102,8.980867
"0763","0763","PIAZZA STURLA\CHIGHIZOLA",44.394552,8.980825
"0765","0765","PIAZZA STURLA\CHIESA",44.394835,8.980853
"0766","0766","STURLA 1\STURLA FS",44.396558,8.981220
"0767","0767","STURLA 3\PRATOLONGO",44.402723,8.978353
"0768","0768","DONGHI 1\CHIESA",44.408152,8.966782
"0769","0769","DONGHI 2\MADONNETTA",44.410623,8.969107
"0770","0770","DONGHI 3\MANZASCO",44.412367,8.970157
"0771","0771","DONGHI\CAPOLINEA",44.412982,8.972065
"0772","0772","DONGHI 1\MANZASCO",44.412198,8.969735
"0773","0773","DONGHI 2\MADONNETTA",44.410530,8.968997
"0774","0774","MANUZIO 1\GAULLI",44.409375,8.966582
"0775","0775","MANUZIO 2\MARINA DI ROBILANT",44.407903,8.964472
"0776","0776","MONTICELLI 1\CARLOFORTE",44.414093,8.954373
"0777","0777","FEREGGIANO 1\GALILEO FERRARIS",44.415562,8.957333
"0779","0779","FEREGGIANO 3\MORO",44.418160,8.965172
"0781","0781","FEREGGIANO 1\MORO",44.417908,8.965057
"0782","0782","FEREGGIANO 2\BIGA",44.416748,8.960843
"0783","0783","FEREGGIANO 3\GALILEO FERRARIS",44.415907,8.957725
"0784","0784","TEGLIA 2\INPS",44.453528,8.895862
"0785","0785","GALLIERA 1\CARLOFORTE",44.413370,8.953985
"0786","0786","GALLIERA 2\DON ORIONE",44.411433,8.953963
"0787","0787","GALLIERA 3\MIGLIO",44.409413,8.953158
"0788","0788","TEGLIA 1\INPS",44.453312,8.895547
"0789","0789","BRIGATA LIGURIA 1\PERANI",44.403835,8.943975
"0790","0790","TORINO 3\BUENOS AIRES",44.403265,8.951248
"0791","0791","DE STEFANIS 3\STADIO",44.417948,8.952812
"0792","0792","DE STEFANIS 4\COSTA",44.420042,8.950395
"0793","0793","DE STEFANIS 5\PARENZO",44.421612,8.948645
"0794","0794","ISTRIA 1\MERCATO",44.423645,8.948328
"0795","0795","ISTRIA 2\GARRASSINI",44.424968,8.948542
"0796","0796","ISTRIA 3\PONTE MONTEVERDE",44.427498,8.952158
"0797","0797","ISTRIA 5\PASSERELLA",44.429342,8.957040
"0798","0798","ISTRIA 6\PONTE BEZZECCA",44.430825,8.958742
"0799","0799","DALMAZIA 1\ADRIATICO",44.433350,8.961598
"0800","0800","DALMAZIA 2\PONTE CARREGA",44.435293,8.962912
"0801","0801","DALMAZIA 3\GUGLIELMETTI",44.438943,8.963737
"0802","0802","DALMAZIA 4\PONTE FERITORE",44.440975,8.964638
"0803","0803","ADAMOLI 1\SPALATO",44.442667,8.965750
"0804","0804","ADAMOLI 3\SCIORBA",44.445745,8.969338
"0805","0805","ADAMOLI 5\CAVA",44.449232,8.973812
"0806","0806","ADAMOLI 6\MOLASSANA",44.451443,8.976847
"0807","0807","ADAMOLI 1\MOLASSANA",44.451287,8.976285
"0808","0808","ADAMOLI 2\CAVA",44.449262,8.973665
"0809","0809","ADAMOLI 3\PONTE GALLO",44.446633,8.970297
"0810","0810","ADAMOLI 5\SPALATO",44.442673,8.965590
"0811","0811","DALMAZIA 1\PONTE FERITORE",44.440955,8.964453
"0812","0812","LORIA 7\MAGRETTI",44.421215,8.959205
"0813","0813","DALMAZIA 3\PONTE CARREGA",44.435310,8.962753
"0814","0814","DALMAZIA 4\ADRIATICO",44.432957,8.961062
"0815","0815","DALMAZIA 5\PONTE BEZZECCA",44.431228,8.959100
"0816","0816","ISTRIA 1\PASSERELLA",44.429065,8.956488
"0817","0817","ISTRIA 3\PONTE MONTEVERDE",44.427487,8.951723
"0818","0818","ISTRIA 4\MERCATO",44.423810,8.948205
"0819","0819","DE STEFANIS 1\PARENZO",44.421407,8.948707
"0820","0820","DE STEFANIS 2\MONTEBRUNO",44.420170,8.950057
"0821","0821","DE STEFANIS 4\STADIO",44.417862,8.952683
"0824","0824","RESASCO\CAPOLINEA",44.428768,8.953455
"0825","0825","BASSANO\SAPORITI",44.423098,8.926333
"0826","0826","MONTEGRAPPA 1\MONTESANO",44.408302,8.948080
"0827","0827","MONTEGRAPPA 2\BANCHERO",44.409433,8.949390
"0828","0828","MONTEGRAPPA 3\ASIAGO",44.410750,8.950135
"0829","0829","MONTEGRAPPA 4\MONTE CENGIO",44.410303,8.948703
"0830","0830","MONTEGRAPPA 5\MAGISTERO",44.411238,8.949153
"0831","0831","GIARDINO\MONTEGRAPPA",44.413832,8.949163
"0832","0832","BURLANDO 1\SALITA MONTALDO",44.416685,8.946987
"0833","0833","BURLANDO 2\PRIVATA BURLANDO",44.418280,8.945088
"0834","0834","BURLANDO 3\OLIVERI",44.422150,8.943990
"0835","0835","BURLANDO 4\SCUOLE",44.423965,8.944700
"0836","0836","GINESTRE 1\CHIESA",44.425118,8.944778
"0837","0837","GINESTRE 2\GIARDINI DI TOMASO",44.426525,8.943918
"0838","0838","GINESTRE\CAPOLINEA",44.426195,8.944110
"0839","0839","GINESTRE 1\SCALINATA",44.426407,8.943685
"0840","0840","GINESTRE 2\CHIESA",44.425160,8.944738
"0841","0841","BURLANDO 1\SCUOLE",44.423913,8.944630
"0842","0842","BURLANDO 2\OLIVERI",44.422105,8.943955
"0843","0843","BURLANDO 3\PRIVATA BURLANDO",44.418172,8.945012
"0844","0844","BURLANDO 4\SALITA MONTALDO",44.416493,8.947080
"0845","0845","GIARDINO\BURLANDO",44.414157,8.948937
"0846","0846","MONTEGRAPPA 1\MAGISTERO",44.411032,8.949003
"0847","0847","MONTEGRAPPA 2\MONTE CENGIO",44.410270,8.948392
"0848","0848","MONTEGRAPPA 3\ASIAGO",44.410610,8.949978
"0849","0849","MONTEGRAPPA 4\BANCHERO",44.409175,8.949000
"0850","0850","MONTEGRAPPA 5\MONTESANO",44.408147,8.947537
"0851","0851","BIANCHERI\CAPOLINEA",44.424087,8.848625
"0852","0852","MERANO\SANT'ALBERTO",44.427203,8.838925
"0853","0853","SANT'ALBERTO 2\CASE LIBERTAS",44.428998,8.838118
"0854","0854","SANT'ALBERTO 3",44.431618,8.838713
"0855","0855","SANT'ALBERTO 4\MOLINASSI",44.433177,8.838433
"0856","0856","MOLINASSI\ROLLINO",44.434202,8.838142
"0857","0857","ROLLINO 1\BRISCATA",44.433078,8.839567
"0858","0858","ROLLINO 2",44.432277,8.840823
"0859","0859","ROLLINO 3",44.433257,8.841498
"0860","0860","ROLLINO 4",44.435048,8.840482
"0861","0861","ROLLINO 5",44.435910,8.839282
"0862","0862","ROLLINO 6",44.436872,8.839423
"0863","0863","ROLLINO 7",44.437840,8.839390
"0864","0864","ROLLINO 8\SUPERIORE CATALDI",44.438218,8.838220
"0865","0865","ROLLINO\CAPOLINEA",44.439793,8.837120
"0866","0866","ROLLINO 4\SUPERIORE CATALDI",44.438375,8.838225
"0867","0867","ROLLINO 5",44.437803,8.839563
"0868","0868","ROLLINO 6",44.436640,8.839325
"0869","0869","ROLLINO 7",44.435905,8.839215
"0870","0870","ROLLINO 8",44.435148,8.840550
"0871","0871","ROLLINO 9",44.433268,8.841430
"0872","0872","ROLLINO 10",44.432330,8.840633
"0873","0873","ROLLINO 11\BRISCATA",44.433227,8.839523
"0874","0874","MOLINASSI\BRISCATA",44.434505,8.838443
"0875","0875","SANT'ALBERTO 5\MOLINASSI",44.433005,8.838358
"0876","0876","SANT'ALBERTO 6",44.431610,8.838627
"0877","0877","SANT'ALBERTO 7\CASE LIBERTAS",44.428860,8.838075
"0878","0878","CASE LIBERTAS\INSURREZIONE",44.428543,8.835752
"0879","0879","SANT'ALBERTO 5",44.431475,8.837708
"0880","0880","SANT'ALBERTO 6",44.432392,8.837153
"0881","0881","SANT'ALBERTO 7",44.433570,8.836990
"0882","0882","SANT'ALBERTO 8",44.433603,8.836168
"0884","0884","SANT'ALBERTO\CIMITERO SESTRI",44.436172,8.834002
"0885","0885","SANT'ALBERTO 1",44.433393,8.836080
"0886","0886","SANT'ALBERTO 2",44.433425,8.837047
"0887","0887","SANT'ALBERTO 3",44.432330,8.837028
"0888","0888","SANT'ALBERTO 4",44.431848,8.837872
"0889","0889","BORZOLI 2\LEONARDI",44.425992,8.855928
"0890","0890","BORZOLI 3\DA BISSONE",44.427160,8.857035
"0891","0891","BORZOLI 4\AUTOSTRADA",44.429348,8.858503
"0892","0892","BORZOLI 5\FRINGUELLO",44.430428,8.859933
"0893","0893","BORZOLI 6\CAMPO SPORTIVO",44.432383,8.863538
"0894","0894","BORZOLI 7\CIMITERO",44.433465,8.866690
"0895","0895","BORZOLI 8\MONTE SLEME",44.434307,8.869135
"0896","0896","BORZOLI 9\VENZANO",44.436540,8.873187
"0897","0897","BORZOLI 10\CRISTO DI MARMO",44.437810,8.875237
"0898","0898","BORZOLI 11\BURLO",44.439160,8.878123
"0899","0899","BORZOLI 12",44.439208,8.880118
"0900","0900","BORZOLI 13\FEGINO",44.439787,8.880873
"0901","0901","BORZOLI 14\INTERMEDIO",44.437220,8.883565
"0902","0902","FERRI 1\FEGINO",44.437213,8.887485
"0903","0903","AVEZZANA",44.418788,8.919145
"0904","0904","PALLAVICINI\CAPOLINEA",44.437268,8.892437
"0905","0905","RAGAZZI DEL 99\CAPOLINEA",44.399855,8.981562
"0906","0906","FERRI 5\FEGINO",44.436760,8.887105
"0907","0907","BORZOLI 1\INTERMEDIO",44.437543,8.883238
"0908","0908","BORZOLI 2\FEGINO",44.440310,8.880092
"0909","0909","BORZOLI 3",44.439412,8.880080
"0910","0910","BORZOLI 4\BURLO",44.439115,8.877792
"0911","0911","BORZOLI 5\CRISTO DI MARMO",44.437790,8.875002
"0912","0912","BORZOLI 6\VENZANO",44.436072,8.872478
"0913","0913","BORZOLI 7\MONTE SLEME",44.434278,8.868847
"0914","0914","BORZOLI 8\CIMITERO",44.433395,8.866398
"0915","0915","BORZOLI 9\CAMPO SPORTIVO",44.432287,8.863210
"0916","0916","BORZOLI 10\FRINGUELLO",44.430822,8.860343
"0917","0917","BORZOLI 11\AUTOSTRADA",44.429300,8.858377
"0927","0927","PERRONE 2\BOSCHETTO",44.433477,8.885778
"0928","0928","PERRONE 3\QUATTRO PALAZZI",44.429363,8.885522
"0930","0930","PERRONE 5\LORENZI",44.428492,8.883197
"0931","0931","PERRONE 6\QUATTRO PALAZZI",44.429525,8.885945
"0932","0932","PERRONE 7\BOSCHETTO",44.433710,8.885872
"0934","0934","LAGACCIO 1\SAN ROCCO",44.417315,8.917890
"0935","0935","LAGACCIO 2\CENTURIONE",44.419030,8.918762
"0936","0936","LAGACCIO 3\CASERMA",44.421458,8.918447
"0937","0937","LAGACCIO 4\AVEZZANA",44.420230,8.918577
"0938","0938","PALLAVICINI",44.437233,8.892360
"0939","0939","VEZZANI 2\CAMBIASO",44.438058,8.896832
"0940","0940","VEZZANI 3\STUGGIA",44.439018,8.898943
"0941","0941","VEZZANI 4",44.440628,8.900598
"0942","0942","VEZZANI 5\FORNACE DEL GARBO",44.441152,8.902475
"0943","0943","FORNACE DEL GARBO 1\RONCASOLO",44.440875,8.906217
"0944","0944","FORNACE DEL GARBO 2\PENTEMA",44.440858,8.906977
"0945","0945","FORNACE DEL GARBO 3\CAREGHINO",44.440683,8.908898
"0946","0946","FORNACE DEL GARBO 4",44.439453,8.909897
"0947","0947","FORNACE DEL GARBO 5\OLIVERI",44.437845,8.910788
"0948","0948","CHIESA DEL GARBO\CAPOLINEA",44.436517,8.908053
"0949","0949","FORNACE DEL GARBO 1\OLIVERI",44.437855,8.910842
"0950","0950","FORNACE DEL GARBO 2",44.439508,8.910095
"0951","0951","FORNACE DEL GARBO 3\CAREGHINO",44.440770,8.908752
"0952","0952","FORNACE DEL GARBO 4\PENTEMA",44.440715,8.907022
"0953","0953","FORNACE DEL GARBO 5\RONCASOLO",44.440975,8.905968
"0954","0954","VEZZANI 1\FORNACE DEL GARBO",44.441148,8.902257
"0955","0955","VEZZANI 2",44.440702,8.900677
"0956","0956","VEZZANI 4\CAMBIASO",44.438397,8.897443
"0957","0957","BARACCA\VIGNA",44.425133,8.849510
"0958","0958","CANEPA 2\DEL CARRETTO",44.428962,8.851748
"0959","0959","OLIVA 1\OSPEDALE DI SESTRI",44.430745,8.851943
"0960","0960","OLIVA 2\AQUILEIA",44.432505,8.851620
"0961","0961","SEDICI GIUGNO 1\TRAVERSA",44.433163,8.848012
"0962","0962","CONSIGLIERE\COSTA FS",44.432585,8.845232
"0963","0963","SEDICI GIUGNO 2\TRAVERSA",44.433298,8.848653
"0964","0964","LANDI 2\CAPOLINEA",44.416502,8.890560
"0965","0965","LANDI 3\SCALINATA",44.415853,8.891002
"0966","0966","BALBI PIOVERA\PASCOLI",44.411448,8.899388
"0967","0967","SCASSI\OSPEDALE",44.412398,8.897283
"0968","0968","MAGELLANO 1\SAN BARBORINO",44.413085,8.896432
"0969","0969","MAGELLANO 2\SCALINATA",44.413562,8.895168
"0970","0970","MARTINETTI 2\VASCO DA GAMA",44.415350,8.895125
"0971","0971","MARTINETTI 3\CEVASCO",44.416480,8.895587
"0972","0972","MARTINETTI 4\POSTE",44.417955,8.896032
"0973","0973","MARTINETTI 5",44.418737,8.896058
"0974","0974","MARTINETTI 6",44.419253,8.896655
"0975","0975","MARTINETTI 7\BIVIO BELVEDERE",44.421125,8.897965
"0976","0976","BELVEDERE 1\POWELL",44.420290,8.896060
"0977","0977","POWELL 1",44.421060,8.894597
"0978","0978","POWELL 2",44.421532,8.895695
"0979","0979","BELVEDERE 2\SCALINATA",44.419497,8.894747
"0980","0980","BELVEDERE\CAPOLINEA",44.417775,8.893302
"0981","0981","BELVEDERE 1\SCALINATA",44.419540,8.894875
"0982","0982","CANTORE 3\VILLA SCASSI",44.411060,8.896183
"0983","0983","BELVEDERE 2\POWELL",44.420213,8.896220
"0984","0984","BELVEDERE 3\MARTINETTI",44.421167,8.897687
"0985","0985","MARTINETTI 2",44.418830,8.895623
"0986","0986","MARTINETTI 3",44.418948,8.896585
"0987","0987","MARTINETTI 4\POSTE",44.417910,8.895892
"0988","0988","MARTINETTI 5\CEVASCO",44.416482,8.895472
"0989","0989","MARTINETTI 6\VASCO DA GAMA",44.414992,8.894675
"0990","0990","MAGELLANO 1\SCALINATA",44.413477,8.894830
"0991","0991","SCASSI\OSPEDALE",44.412297,8.897360
"0992","0992","BALBI PIOVERA\BECCARIA",44.411275,8.898237
"0993","0993","CANTORE 4\PITTALUGA",44.410913,8.897210
"0994","0994","FARINI\MONTI",44.413717,8.891198
"0995","0995","MONTI 1\LANDI",44.415543,8.891755
"0996","0996","MONTI 2\TOSA",44.414842,8.891602
"0997","0997","LANDI 1\BATTAGLINI",44.416218,8.891437
"0998","0998","ARRIVABENE",44.431347,8.853428
"0999","0999","PIAZZA ARRIVABENE",44.433217,8.854007
"1000","1000","CHIARAVAGNA 2\BUXIO",44.435642,8.854497
"1001","1001","CHIARAVAGNA 3\PANIGARO",44.437990,8.854765
"1002","1002","CHIARAVAGNA 4\CASSINELLE",44.439890,8.855150
"1003","1003","CHIARAVAGNA 5",44.441223,8.855097
"1004","1004","CHIARAVAGNA 1",44.443527,8.854600
"1005","1005","CHIARAVAGNA 2",44.441078,8.855085
"1006","1006","CHIARAVAGNA 3\CASSINELLE",44.439800,8.855050
"1007","1007","CHIARAVAGNA 4\PANIGARO",44.438008,8.854615
"1008","1008","CHIARAVAGNA 5\BUXIO",44.435805,8.854217
"1012","1012","MASSENA\CORONATA",44.416475,8.876010
"1013","1013","CORONATA 1",44.418040,8.875468
"1014","1014","CORONATA 2\CALASANZIO",44.418938,8.875240
"1015","1015","CORONATA 3\PADRE UMILE",44.420960,8.876887
"1016","1016","CORONATA 4\SAN RAFFAELE",44.423350,8.876558
"1017","1017","MONTE GUANO 1\SANTUARIO",44.426320,8.877110
"1018","1018","MONTE GUANO 2\SAN GIACOMO",44.426853,8.873952
"1019","1019","MONTE GUANO 3\CIMITERO",44.428535,8.870230
"1020","1020","MONTE GUANO 4\ZINGARELLO",44.431493,8.870742
"1021","1021","MONTE GUANO 5\PURGATORIO",44.432095,8.873032
"1022","1022","TESTA DI CAVALLO\CAPOLINEA",44.433443,8.874880
"1023","1023","MONTE GUANO 1\PURGATORIO",44.432065,8.872885
"1024","1024","MONTE GUANO 2\ZINGARELLO",44.431492,8.870555
"1026","1026","MONTE GUANO 3\SAN GIACOMO",44.426790,8.873965
"1027","1027","MONTE GUANO 4\SANTUARIO",44.426225,8.877122
"1028","1028","CORONATA 1\SAN RAFFAELE",44.423245,8.876422
"1029","1029","CORONATA 2\PADRE UMILE",44.420758,8.876695
"1030","1030","CORONATA 3\CALASANZIO",44.418805,8.874958
"1031","1031","CORONATA 4",44.417903,8.875552
"1032","1032","MASSENA\CORONATA",44.416443,8.875633
"1034","1034","PERRONE 1\MASSENA",44.416460,8.876618
"1035","1035","PERRONE 2\BIANCHI",44.418448,8.878537
"1036","1036","BIANCHI 1\BAGNASCO",44.420428,8.880678
"1037","1037","PERRONE 3\CAMPI",44.425337,8.882737
"1038","1038","PERRONE 4\VILLA PICASSO",44.426998,8.882015
"1039","1039","PERRONE 8\BORZOLI",44.435540,8.886675
"1040","1040","FERRI 2\SANT'AMBROGIO",44.440058,8.888322
"1041","1041","FERRI 3\QUARTINI",44.442025,8.887645
"1042","1042","FERRI 4\DE CALBOLI",44.444280,8.888980
"1043","1043","FERRI 5\SAN DONA'",44.446397,8.889440
"1044","1044","POLONIO 1\TRASTA",44.452463,8.892520
"1045","1045","POLONIO 2\SALITA MURTA",44.456540,8.897302
"1046","1046","N.S. GUARDIA 1\BOLZANETO FS",44.458650,8.898908
"1047","1047","N.S. GUARDIA 2\PINO DI MURTA",44.461317,8.897393
"1048","1048","N.S. GUARDIA 3",44.463468,8.896948
"1049","1049","N.S. GUARDIA 4\PONTE RATTO",44.464420,8.897612
"1050","1050","ROMAIRONE 1\SCALA",44.469555,8.901262
"1051","1051","ROMAIRONE 2\SAN BIAGIO",44.474217,8.899313
"1052","1052","ROMAIRONE 3\PONTE BARBIERI",44.476982,8.899423
"1053","1053","SEMINI 1\GASTALDI",44.479848,8.899297
"1054","1054","SEMINI 2\SAN BIAGIO FS",44.481717,8.898748
"1055","1055","SEMINI 3\ISOLA ECOLOGICA",44.485783,8.897927
"1056","1056","ISOCORTE\OTTONELLI",44.490328,8.900247
"1057","1057","FONDERIE GRONDONA\VALSUGANA",44.492603,8.903712
"1059","1059","POLONIO 2\TRASTA",44.452790,8.892720
"1060","1060","CASTEL MORRONE 2\CORVI",44.449073,8.889302
"1061","1061","BASSANO\SAPORITI",44.423275,8.926392
"1062","1062","SEMINI 1\FORESTALE",44.488180,8.898688
"1063","1063","SEMINI 2\ISOLA ECOLOGICA",44.485422,8.897900
"1064","1064","SEMINI 3\SAN BIAGIO FS",44.481338,8.898775
"1065","1065","SEMINI 4\GASTALDI",44.479493,8.899320
"1066","1066","ROMAIRONE 1\PONTE BARBIERI",44.476460,8.899138
"1067","1067","ROMAIRONE 2\SAN BIAGIO",44.473488,8.899847
"1068","1068","ROMAIRONE 3\SCALA",44.469177,8.901087
"1069","1069","LEVATI 1\CENTRO COMMERCIALE",44.468865,8.899267
"1070","1070","N.S. GUARDIA 1\ARTIGIANI",44.468502,8.898158
"1071","1071","N.S. GUARDIA 2\PONTE RATTO",44.465892,8.898090
"1072","1072","N.S. GUARDIA 3",44.463288,8.896760
"1073","1073","N.S. GUARDIA 4\PINO DI MURTA",44.461260,8.897313
"1074","1074","N.S. GUARDIA 5\BOLZANETO FS",44.458753,8.898860
"1075","1075","POLONIO 1\SALITA MURTA",44.456348,8.896987
"1076","1076","NERVI\CAPOLINEA",44.384412,9.032223
"1077","1077","CASTEL MORRONE 1\TRASTA",44.451780,8.891290
"1078","1078","FERRI 1\SAN DONA'",44.446233,8.889327
"1079","1079","FERRI 2\DE CALBOLI",44.443758,8.888440
"1080","1080","FERRI 3\QUARTINI",44.441318,8.887565
"1081","1081","FERRI 4\SANT'AMBROGIO",44.439517,8.888047
"1082","1082","PERRONE 1\BORZOLI",44.435357,8.886412
"1083","1083","PERRONE 4\LORENZI",44.428272,8.882843
"1084","1084","PERRONE 5\VILLA PICASSO",44.426947,8.881853
"1085","1085","PERRONE 6\CAMPI",44.424842,8.882473
"1086","1086","PERINI\CAMPI",44.422537,8.883647
"1087","1087","PERRONE 7\BIANCHI",44.418267,8.878380
"1088","1088","PERRONE 8\MASSENA",44.416583,8.876550
"1090","1090","MAGELLANO 2\SAN BARBORINO",44.412997,8.896158
"1093","1093","ARTIGIANI 1\N.S. DELLA GUARDIA",44.471137,8.894470
"1094","1094","ARTIGIANI 2\ALBISOLA",44.469863,8.895897
"1095","1095","COSTA DI PINO\TORRAZZA",44.469080,8.959137
"1096","1096","MANIN\CAPOLINEA",44.414102,8.947102
"1097","1097","STAZIONE PER CASELLA",44.414350,8.948480
"1098","1098","SAN BARTOLOMEO\CABELLA",44.416042,8.946688
"1099","1099","CARSO 1\CABELLA",44.416658,8.945177
"1100","1100","CARSO 2\SAN BERNARDINO",44.418223,8.943648
"1101","1101","CARSO 3\SAN PANTALEO",44.420010,8.942830
"1102","1102","CARSO 4\CHIODO",44.417468,8.942433
"1103","1103","CARSO 5\CIMA SAN PANTALEO",44.423485,8.939855
"1104","1104","CARSO 6",44.426073,8.936790
"1105","1105","CARSO 7\RIGHI",44.424328,8.937443
"1106","1106","COSTANZI 1\PERALTO",44.426198,8.934365
"1107","1107","COSTANZI 2\PARCO DELLE MURA",44.428693,8.928805
"1108","1108","COSTANZI 3\FUMAGALLI",44.427870,8.927913
"1109","1109","COSTANZI 5\GIUSSO",44.426877,8.926802
"1110","1110","BELVEDERE DA PASSANO\CAPOLINEA",44.424628,8.924340
"1111","1111","COSTANZI 4\PARCO DELLE MURA",44.428380,8.928477
"1112","1112","COSTANZI 5\PERALTO",44.426122,8.934623
"1113","1113","CARSO 1\RIGHI",44.424300,8.937592
"1114","1114","CARSO 2",44.425952,8.936802
"1115","1115","CARSO 3\CIMA SAN PANTALEO",44.423467,8.939785
"1116","1116","CARSO 4\CHIODO",44.417615,8.942700
"1117","1117","CARSO 5\SAN PANTALEO",44.419772,8.942758
"1118","1118","CARSO 6\SAN BERNARDINO",44.418018,8.943655
"1119","1119","CARSO 7\CABELLA",44.416597,8.945065
"1120","1120","CABELLA 1\SAN BERNARDINO",44.415965,8.945290
"1121","1121","CABELLA 2\CONTARDO",44.415643,8.946165
"1122","1122","CABELLA 3\PASSO BISCUOLA",44.414832,8.946032
"1123","1123","RIGHI\CAPOLINEA",44.424145,8.937833
"1124","1124","SAN CIPRIANO\CAPOLINEA",44.501340,8.914692
"1125","1125","CARLI 1\MADONNETTA",44.494587,8.912563
"1126","1126","CARLI 2",44.492605,8.908818
"1127","1127","CARLI 3",44.494262,8.909570
"1128","1128","CARLI 4",44.495237,8.909438
"1129","1129","CARLI 5",44.494982,8.909223
"1130","1130","CARLI 6",44.493908,8.908248
"1131","1131","VAL D'ASTICO 1",44.495172,8.908455
"1132","1132","VAL D'ASTICO 2\FRATELLI GAZZO",44.496513,8.907167
"1133","1133","VAL D'ASTICO 3\ANFOSSI",44.495715,8.905788
"1134","1134","BENEDETTO CESINO 1\CAMPOMORONE",44.501220,8.903988
"1135","1135","BENEDETTO CESINO 2",44.502612,8.905215
"1136","1136","BENEDETTO CESINO 3",44.503792,8.905530
"1137","1137","BENEDETTO CESINO 4",44.505453,8.905953
"1138","1138","BENEDETTO CESINO 5",44.505175,8.905013
"1139","1139","BENEDETTO CESINO 6",44.506473,8.905467
"1140","1140","BENEDETTO CESINO 8",44.503397,8.902177
"1141","1141","BENEDETTO CESINO 9\CIMITERO",44.504405,8.902382
"1142","1142","CHIESA DI CESINO\CAPOLINEA",44.506248,8.902563
"1143","1143","BENEDETTO CESINO 1\CIMITERO",44.504307,8.902252
"1144","1144","BENEDETTO CESINO 2",44.503462,8.902110
"1145","1145","BENEDETTO CESINO 4",44.506350,8.905265
"1146","1146","BENEDETTO CESINO 5",44.504960,8.904912
"1147","1147","BENEDETTO CESINO 6",44.505492,8.905907
"1148","1148","BENEDETTO CESINO 7",44.503767,8.905392
"1149","1149","BENEDETTO CESINO 8",44.502542,8.905142
"1150","1150","BENEDETTO CESINO 9\CAMPOMORONE",44.501133,8.903673
"1152","1152","PARTIGIANI CADUTI\POLI",44.496772,8.903805
"1153","1153","ARIMONDI\POLI",44.495602,8.904437
"1154","1154","VAL D'ASTICO 1\ANFOSSI",44.495635,8.905723
"1155","1155","VAL D'ASTICO 2\FRATELLI GAZZO",44.496472,8.907145
"1156","1156","VAL D'ASTICO 3",44.495103,8.908443
"1157","1157","CARLI 1",44.493752,8.908155
"1158","1158","CARLI 2",44.495018,8.909267
"1159","1159","CARLI 3",44.495108,8.909532
"1160","1160","CARLI 4",44.494145,8.909218
"1161","1161","CARLI 5",44.492417,8.908780
"1162","1162","CARLI 6\MADONNETTA",44.494538,8.912623
"1163","1163","LINNEO 5\CHERUBINI",44.445912,8.902170
"1164","1164","DINEGRO\TERMINAL TRAGHETTI",44.412282,8.909147
"1165","1165","S.B. DEL FOSSATO 1\CANTORE",44.411110,8.899915
"1166","1166","S.B. DEL FOSSATO 2\CHIESA",44.413983,8.901390
"1167","1167","S.B. DEL FOSSATO 3\DANTE CONTE",44.414220,8.902383
"1168","1168","S.B. DEL FOSSATO 4\CASE PORTO",44.413038,8.901475
"1169","1169","S.B. DEL FOSSATO 5",44.413512,8.902835
"1170","1170","S.B. DEL FOSSATO 6\GIARDINI",44.413322,8.903142
"1171","1171","S.B. DEL FOSSATO 7\RIGOLA",44.413623,8.904690
"1172","1172","MURA ANGELI\BUONVICINI",44.416638,8.904740
"1173","1173","PORTA ANGELI 1\BARACCHETTA",44.419223,8.904052
"1174","1174","PORTA ANGELI 2\CASTAGNA",44.421465,8.902452
"1175","1175","PORTA ANGELI 3\PROMONTORIO",44.421715,8.899958
"1176","1176","MARTINETTI 1\BIVIO BELVEDERE",44.421407,8.897807
"1177","1177","MARTINETTI 7\MONTI",44.413668,8.893623
"1178","1178","MONTANO\SAMPIERDARENA FS",44.412930,8.888462
"1179","1179","MARTINETTI 1\MONTI",44.413682,8.893788
"1180","1180","PORTA ANGELI 1\PROMONTORIO",44.421583,8.899883
"1181","1181","PORTA ANGELI 2\CASTAGNA",44.421398,8.902397
"1182","1182","PORTA ANGELI 3\BARACCHETTA",44.419117,8.903977
"1183","1183","MURA ANGELI\BUONVICINI",44.416370,8.904660
"1184","1184","S.B. DEL FOSSATO 1\RIGOLA",44.413658,8.904532
"1185","1185","S.B. DEL FOSSATO 2\GIARDINI",44.412830,8.902995
"1186","1186","S.B. DEL FOSSATO 3",44.413443,8.902573
"1187","1187","S.B. DEL FOSSATO 4\CASE PORTO",44.413055,8.901548
"1188","1188","S.B. DEL FOSSATO 5\DANTE CONTE",44.414453,8.902685
"1189","1189","S.B. DEL FOSSATO 6\CHIESA",44.414213,8.901447
"1190","1190","S.B. DEL FOSSATO 7\CANTORE",44.410985,8.899783
"1192","1192","DONGHI 4\BERNO",44.412950,8.971953
"1193","1193","BERGHINI 1\GALEAZZO",44.413028,8.969568
"1194","1194","BERGHINI 2",44.413792,8.972247
"1195","1195","BERGHINI 3",44.414555,8.976283
"1196","1196","BERGHINI 4\BONACCHI",44.414358,8.978038
"1197","1197","BERGHINI 5",44.414987,8.976807
"1198","1198","BERGHINI 6",44.415223,8.976955
"1199","1199","BERGHINI 7\SANTA TECLA",44.415727,8.979415
"1200","1200","BERGHINI 9\PIANDERLINO",44.416080,8.975478
"1201","1201","BERGHINI 11\GIARDINI",44.416648,8.984237
"1202","1202","BERGHINI 12",44.417620,8.983522
"1203","1203","CAMALDOLI\CAPOLINEA",44.419298,8.984998
"1204","1204","BERGHINI 1",44.417593,8.983480
"1205","1205","BERGHINI 2\GIARDINI",44.416820,8.984157
"1206","1206","BERGHINI 4\PIANDERLINO",44.416113,8.975263
"1207","1207","BERGHINI 6\SANTA TECLA",44.415610,8.978855
"1208","1208","BERGHINI 7",44.415282,8.976703
"1209","1209","BERGHINI 8",44.414948,8.976797
"1210","1210","BERGHINI 9\BONACCHI",44.414230,8.977607
"1211","1211","BERGHINI 10",44.414550,8.975895
"1212","1212","BERGHINI 11",44.413757,8.972057
"1213","1213","BERGHINI 12\GALEAZZO",44.413020,8.969215
"1214","1214","BERGHINI 13\BERNO",44.413063,8.971485
"1216","1216","MOSSO\PRONTO SOCCORSO",44.408340,8.975557
"1218","1218","ACQUASANTA 2\PICCARDO",44.443328,8.751748
"1219","1219","CHIESA SANT'ILARIO\CAPOLINEA",44.385088,9.053763
"1220","1220","SANT'ILARIO 1\SOCIETA' OPERAIA",44.385265,9.051063
"1221","1221","SANT'ILARIO 2",44.384447,9.053272
"1222","1222","SANT'ILARIO 3\RIO FONTANINO",44.383615,9.056042
"1223","1223","SANT'ILARIO 4",44.383608,9.054330
"1224","1224","SANT'ILARIO 5",44.383682,9.052547
"1225","1225","SANT'ILARIO 6\SALITA NOFFI",44.383695,9.049943
"1226","1226","NERVI\CAPOLINEA",44.384367,9.032260
"1227","1227","BASSANITE\SALA",44.383652,9.042930
"1228","1228","SANT'ILARIO 1\PASQUA",44.383132,9.046012
"1229","1229","SANT'ILARIO 2\SOMMA",44.383545,9.047883
"1230","1230","SANT'ILARIO 3\SALITA NOFFI",44.383862,9.050335
"1231","1231","SANT'ILARIO 4",44.383672,9.052725
"1232","1232","SANT'ILARIO 5",44.383640,9.054872
"1233","1233","SANT'ILARIO 6\RIO FONTANINO",44.383473,9.056062
"1234","1234","SANT'ILARIO 7",44.384513,9.053173
"1235","1235","SANT'ILARIO 8\SOCIETA' OPERAIA",44.385298,9.051093
"1236","1236","CIMITERO DI NERVI",44.389577,9.036897
"1237","1237","COMMERCIO 6",44.389003,9.035572
"1238","1238","COMMERCIO 7",44.388078,9.034558
"1239","1239","COMMERCIO 8",44.387105,9.034007
"1240","1240","COMMERCIO 9",44.386238,9.033400
"1241","1241","COMMERCIO 10\BELSITO",44.386260,9.032242
"1242","1242","TOSONOTTI",44.429293,8.744163
"1244","1244","COMMERCIO 1\OBERDAN",44.385778,9.032453
"1245","1245","COMMERCIO 2",44.386192,9.033708
"1246","1246","COMMERCIO 3",44.387367,9.033945
"1247","1247","COMMERCIO 4",44.387925,9.034773
"1248","1248","COMMERCIO 5",44.389095,9.035885
"1249","1249","GAGGERO 1\DA BISSONE",44.429117,8.854890
"1250","1250","GAGGERO 2\MUSCOLA",44.430285,8.855050
"1252","1252","VIRGO POTENS\CAPOLINEA",44.431042,8.856178
"1253","1253","GAGGERO\MUSCOLA",44.430240,8.854975
"1254","1254","RAPISARDI\CAPOLINEA",44.425245,8.820500
"1255","1255","OPISSO 2\CIALLI",44.428018,8.820383
"1256","1256","VARENNA 1\PONTE COLLA",44.431590,8.819722
"1257","1257","VARENNA 2",44.435005,8.818903
"1258","1258","VARENNA 3",44.436795,8.819620
"1259","1259","VARENNA 4\TRE PONTI",44.439118,8.819555
"1260","1260","CARPENARA 1\GRANARA FS",44.441883,8.820740
"1261","1261","CARPENARA 2\PROFONDO",44.444838,8.818015
"1262","1262","CARPENARA 3",44.447915,8.818453
"1263","1263","CARPENARA 5",44.451710,8.821003
"1264","1264","CARPENARA 6",44.454855,8.820435
"1265","1265","CARPENARA 7",44.458443,8.820050
"1266","1266","CARPENARA 8",44.463565,8.823858
"1267","1267","SAN CARLO DI CESE 1",44.463830,8.827755
"1268","1268","SAN CARLO DI CESE 2",44.465398,8.828673
"1269","1269","SAN CARLO DI CESE 3\OGGIA'",44.467510,8.830275
"1270","1270","SAN CARLO DI CESE 4\SCOTTI",44.470832,8.832377
"1271","1271","SAN CARLO DI CESE 5\FERREN",44.474415,8.833070
"1272","1272","SAN CARLO DI CESE 7",44.475512,8.831332
"1273","1273","SAN CARLO DI CESE 8\CHIESA",44.478075,8.833765
"1274","1274","SAN CARLO DI CESE\CAPOLINEA",44.480862,8.836057
"1275","1275","SAN CARLO DI CESE 2\CHIESA",44.477998,8.833677
"1276","1276","SAN CARLO DI CESE 3",44.475457,8.831268
"1277","1277","SAN CARLO DI CESE 5\FERREN",44.474387,8.833035
"1278","1278","SAN CARLO DI CESE 6\SCOTTI",44.470722,8.832283
"1279","1279","SAN CARLO DI CESE 7\OGGIA'",44.467283,8.829937
"1280","1280","SAN CARLO DI CESE 8",44.465350,8.828598
"1281","1281","SAN CARLO DI CESE 9",44.464077,8.827997
"1282","1282","CARPENARA 1",44.463583,8.823680
"1283","1283","CARPENARA 2",44.457958,8.820150
"1284","1284","CARPENARA 3",44.454775,8.820428
"1285","1285","CARPENARA 5",44.451662,8.820970
"1286","1286","CARPENARA 7",44.447958,8.818320
"1287","1287","CARPENARA 8\PROFONDO",44.444782,8.817852
"1288","1288","CARPENARA 9\GRANARA FS",44.442117,8.820802
"1289","1289","VARENNA 1\TRE PONTI",44.439108,8.819373
"1290","1290","VARENNA 2",44.436670,8.819525
"1291","1291","VARENNA 3",44.434788,8.818602
"1292","1292","VARENNA 4\PONTE COLLA",44.431218,8.819925
"1293","1293","OPISSO 1\CIALLI",44.428028,8.820295
"1294","1294","CIMITERO DI RIVAROLO",44.443635,8.906235
"1295","1295","VEZZANI 3\STUGGIA",44.439040,8.898805
"1296","1296","CHIESA DI MURTA\CAPOLINEA",44.461405,8.889578
"1297","1297","DOGE DA MURTA 1",44.460005,8.889773
"1298","1298","DOGE DA MURTA 2\ASILO",44.458250,8.890060
"1299","1299","DOGE DA MURTA 3",44.459065,8.888982
"1300","1300","MASSUCCONE MAZZINI 1\MONFENERA",44.456920,8.890150
"1301","1301","MASSUCCONE MAZZINI 2\SCUOLE",44.457565,8.891690
"1302","1302","MASSUCCONE MAZZINI 3",44.458033,8.893593
"1303","1303","MASSUCCONE MAZZINI 4",44.458700,8.894900
"1304","1304","MASSUCCONE MAZZINI 6",44.458077,8.896398
"1305","1305","MASSUCCONE MAZZINI 7",44.458330,8.897447
"1307","1307","BOLZANETO 3\PASTORINO",44.459783,8.902082
"1308","1308","CUSTO\BOLZANETO FS",44.459013,8.900413
"1309","1309","MASSUCCONE MAZZINI 1",44.458377,8.897400
"1310","1310","MASSUCCONE MAZZINI 2",44.458265,8.896190
"1311","1311","MASSUCCONE MAZZINI 4",44.458688,8.894717
"1312","1312","MASSUCCONE MAZZINI 5",44.457952,8.893273
"1313","1313","MASSUCCONE MAZZINI 6\SCUOLE",44.457503,8.891410
"1314","1314","MASSUCCONE MAZZINI 7\MONFENERA",44.456870,8.889952
"1315","1315","DOGE DA MURTA 1",44.459138,8.888892
"1316","1316","DOGE DA MURTA 2\ASILO",44.458028,8.890172
"1317","1317","DOGE DA MURTA 3",44.460007,8.889862
"1318","1318","CHIODO\BACHERNIA",44.418187,8.940667
"1319","1319","CHIODO 1\CAVALLO",44.420193,8.938795
"1320","1320","CHIODO 2\PIAGGIO",44.420622,8.937868
"1321","1321","PIAGGIO 1\SAN SIMONE",44.421020,8.935953
"1322","1322","PIAGGIO 2\PREVE",44.420117,8.933938
"1323","1323","PIAGGIO 3",44.420397,8.935350
"1324","1324","PIAGGIO 4\VILLA MARIA",44.419660,8.934045
"1325","1325","PIAGGIO 5\MARCO POLO",44.419122,8.933360
"1328","1328","CANCELLIERE 4\FERRARI",44.417518,8.936673
"1329","1329","CANCELLIERE 5\BARSANTI",44.417123,8.936407
"1330","1330","BARSANTI\PONTE CAFFARO",44.416013,8.934878
"1331","1331","VILLA\SPIANATA CASTELLETTO",44.414113,8.933198
"1332","1332","CASTELLETTO\SPIANATA",44.413457,8.933103
"1333","1333","ACQUARONE 1\PONTE CAFFARO",44.416232,8.935957
"1334","1334","ACQUARONE 2\FERRARI",44.417267,8.937842
"1335","1335","ACQUARONE 3\CABRINI",44.417830,8.938777
"1336","1336","CANCELLIERE 1\CAVALLO",44.418722,8.937227
"1337","1337","CANCELLIERE 2\PANE",44.418032,8.936927
"1340","1340","PIAGGIO 1\MARCO POLO",44.419132,8.933053
"1341","1341","PIAGGIO 2\VILLA MARIA",44.419687,8.934168
"1342","1342","PIAGGIO 3",44.420462,8.935590
"1343","1343","PIAGGIO 4\PREVE",44.420225,8.933987
"1344","1344","PIAGGIO 5\SAN SIMONE",44.420943,8.935922
"1345","1345","CHIODO 1\PIAGGIO",44.420577,8.937802
"1346","1346","CHIODO 2\CAVALLO",44.420085,8.939008
"1347","1347","CARTAGENOVA\CAPOLINEA",44.465673,8.992095
"1348","1348","SAN FELICE 1\CADEIA",44.464160,8.992802
"1349","1349","SAN FELICE 2\PERDONO",44.461200,8.990088
"1350","1350","SAN FELICE 3\MANEGGIO",44.461412,8.988043
"1351","1351","SAN FELICE 4\FONTANELLA",44.459985,8.985280
"1352","1352","SAN FELICE 5\OLIVO",44.458708,8.984892
"1353","1353","SAN FELICE 6\BRUGHE",44.458817,8.982697
"1354","1354","SAN FELICE 7\COTELLA SUPERIORE",44.456962,8.982658
"1355","1355","SAN FELICE 8\COTELLA INFERIORE",44.456405,8.981717
"1356","1356","SAN FELICE 9\ACACIE",44.457273,8.980827
"1357","1357","SAN FELICE 10\ARIZONA",44.456715,8.980428
"1359","1359","GEIRATO 2\BERNARDINI",44.456542,8.978512
"1360","1360","GEIRATO 3\PONTE SIFONE",44.458345,8.978030
"1361","1361","GEIRATO 4\SCUOLE",44.459845,8.979315
"1362","1362","GEIRATO 5\PASSERELLA",44.462307,8.981267
"1363","1363","GEIRATO 6",44.463370,8.983033
"1364","1364","GEIRATO 7\CARPI",44.464305,8.984500
"1365","1365","GEIRATO\PONTE CANALE",44.468203,8.989037
"1366","1366","GEIRATO 2\CARPI",44.464010,8.983912
"1367","1367","GEIRATO 3",44.463245,8.982698
"1368","1368","GEIRATO 4\PASSERELLA",44.462143,8.981040
"1369","1369","GEIRATO 5\SCUOLE",44.459713,8.979208
"1370","1370","GEIRATO 6\PONTE SIFONE",44.458233,8.977882
"1371","1371","GEIRATO 7\BERNARDINI",44.456332,8.978510
"1373","1373","SAN FELICE 1\MOLASSANA",44.454517,8.981203
"1374","1374","SAN FELICE 2\ARIZONA",44.456428,8.980492
"1375","1375","SAN FELICE 3\ACACIE",44.457093,8.980802
"1376","1376","SAN FELICE 4\COTELLA INFERIORE",44.456358,8.981908
"1377","1377","SAN FELICE 5\COTELLA SUPERIORE",44.457213,8.982525
"1378","1378","SAN FELICE 6\BRUGHE",44.458838,8.982805
"1379","1379","SAN FELICE 7\OLIVO",44.458507,8.985172
"1380","1380","SAN FELICE 8\FONTANELLA",44.459795,8.985640
"1381","1381","SAN FELICE 9\MANEGGIO",44.461347,8.988118
"1382","1382","SAN FELICE 10\PERDONO",44.461222,8.990308
"1383","1383","SAN FELICE 11\CADEIA",44.464155,8.992862
"1384","1384","DEL PIANO\TORTOSA",44.414947,8.952968
"1385","1385","MARASSI\STADIO",44.417992,8.949153
"1386","1386","MANDOLI\FASSICOMO",44.420485,8.948150
"1387","1387","BLIGNY\CENTRO COMMERCIALE",44.439573,8.964443
"1388","1388","TERPI 1\MOGADISCIO",44.438763,8.966080
"1389","1389","MOGADISCIO 1\MONTESIGNANO",44.436830,8.966037
"1390","1390","MOGADISCIO 2\SALITA TERPI",44.435940,8.966670
"1391","1391","MOGADISCIO 3\PASSO BUGGI",44.436033,8.970478
"1392","1392","MOGADISCIO 4\MULINO",44.437078,8.973407
"1393","1393","MOGADISCIO 5\BAIARDO",44.438058,8.975293
"1394","1394","MOGADISCIO 6\GIACALONE",44.439803,8.976628
"1395","1395","MOGADISCIO 7\ROCCHE DI BAVARI",44.440392,8.978213
"1396","1396","MOGADISCIO 8\SCUOLE",44.441103,8.980353
"1397","1397","MOGADISCIO 9\LOCALITA' MERMI",44.440143,8.981305
"1398","1398","MOGADISCIO 11\SALITA MERMI",44.439883,8.982142
"1399","1399","MOGADISCIO 12\VAL D'AVETO",44.441030,8.985653
"1401","1401","MOGADISCIO 2\VAL D'AVETO",44.440863,8.985490
"1402","1402","MOGADISCIO 3\SALITA MERMI",44.439738,8.981873
"1403","1403","MOGADISCIO 5\LOCALITA' MERMI",44.440325,8.981493
"1404","1404","MOGADISCIO 6\SCUOLE",44.441202,8.980468
"1405","1405","MOGADISCIO 7\ROCCHE DI BAVARI",44.440487,8.978610
"1406","1406","MOGADISCIO 8\GIACALONE",44.439958,8.976688
"1407","1407","MOGADISCIO 9\BAIARDO",44.437980,8.974970
"1408","1408","MOGADISCIO 10\MULINO",44.436922,8.972868
"1409","1409","MOGADISCIO 11\PASSO BUGGI",44.436088,8.970082
"1410","1410","MOGADISCIO 12\SALITA TERPI",44.436067,8.966400
"1411","1411","MOGADISCIO 13\MONTESIGNANO",44.437893,8.966322
"1412","1412","TERPI\MOGADISCIO",44.438918,8.966230
"1413","1413","BLIGNY\CENTRO COMMERCIALE",44.439602,8.964753
"1414","1414","DALMAZIA 2\GUGLIELMETTI",44.438308,8.963427
"1415","1415","PARENZO\PONTE CAMPANELLA",44.422445,8.947990
"1416","1416","MANDOLI\FASSICOMO",44.420628,8.948002
"1417","1417","MARASSI\STADIO",44.417778,8.949187
"1418","1418","TERPI 2\FARMACIA",44.439435,8.966975
"1419","1419","TERPI 3\FAMEIANO",44.439495,8.967872
"1420","1420","TERPI 4\BAILO",44.438435,8.967903
"1421","1421","TERPI 5\PAL PICCOLO",44.437113,8.967565
"1422","1422","FURLANI\MOGADISCIO",44.436250,8.969043
"1423","1423","MERLO\EDERA",44.419908,8.967217
"1424","1424","PINETTI 1\PORTAZZA",44.420552,8.972077
"1425","1425","PINETTI 2\GINESTRATO",44.421470,8.974197
"1426","1426","DANEO 1\DONATI",44.422892,8.976650
"1427","1427","DANEO 2\PEDEGOLI",44.425415,8.979217
"1428","1428","FONTANAROSSA 1\PORTAZZA",44.424052,8.976585
"1429","1429","FONTANAROSSA 2\COSTA DEI ZINI",44.423182,8.975528
"1430","1430","FONTANAROSSA 3\SALITA CHIESA",44.422595,8.973040
"1431","1431","CHIESA DI QUEZZI\CAPOLINEA",44.422673,8.972340
"1432","1432","FONTANAROSSA 1\SALITA CHIESA",44.422658,8.973387
"1433","1433","FONTANAROSSA 2\COSTA DEI ZINI",44.423290,8.975753
"1434","1434","FONTANAROSSA 3\PORTAZZA",44.424065,8.976678
"1435","1435","DANEO 1\PEDEGOLI",44.424937,8.978690
"1436","1436","DANEO 2\DONATI",44.422585,8.976148
"1437","1437","PINETTI 1\GINESTRATO",44.421457,8.973997
"1438","1438","PINETTI 2\PORTAZZA",44.420603,8.972080
"1439","1439","MERLO\CAPRIOLO",44.419880,8.966882
"1440","1440","BIANCHI 1\PERINI",44.421275,8.881992
"1441","1441","BRIGNOLE FS\CAPOLINEA",44.406163,8.946265
"1442","1442","MARTINEZ\PENDOLA",44.406688,8.957482
"1443","1443","D'ALBERTIS 2\BOZZANO",44.410587,8.958395
"1444","1444","MARCHINI 1\SOLARI",44.412760,8.958187
"1445","1445","AMARENA 1\VICO DELL'ORSO",44.413477,8.957910
"1446","1446","AMARENA 3",44.413723,8.958347
"1447","1447","AMARENA\CAPOLINEA",44.413595,8.960322
"1448","1448","AMARENA 2",44.413620,8.958592
"1449","1449","AMARENA 3\VICO DELL'ORSO",44.413510,8.957932
"1451","1451","D'ALBERTIS\BOZZANO",44.409912,8.958093
"1452","1452","CADIGHIARA 1\CASCINE",44.411752,8.990137
"1453","1453","CADIGHIARA 2\TRE PINI",44.413823,8.992603
"1454","1454","NASCHE 1\RIMESSA",44.415233,8.995697
"1455","1455","NASCHE 2\BINELLE",44.416965,8.998615
"1456","1456","NASCHE 3\COSTA",44.417125,9.001030
"1457","1457","SAN GIORGIO 1\BARILLARO",44.419903,9.002107
"1458","1458","SAN GIORGIO 2\FOSSATO",44.423567,9.001923
"1459","1459","SAN GIORGIO 3\NUELO",44.421153,9.005188
"1460","1460","SAN GIORGIO 4",44.426318,9.008932
"1461","1461","SAN GIORGIO 5\SELLA",44.427107,9.010725
"1462","1462","SAN GIORGIO 6\PIANATA",44.427608,9.013343
"1463","1463","SAN GIORGIO 7\OROBONI",44.428387,9.015218
"1464","1464","SAN GIORGIO 8\MADONNETTA",44.429452,9.016862
"1465","1465","SAN GIORGIO 9\SOTTOROCCA",44.431313,9.018707
"1466","1466","SAN GIORGIO 10\CADEROSSI",44.432615,9.020238
"1468","1468","BAVARI\CHIESA",44.432880,9.018733
"1469","1469","SAN GIORGIO 1\CADEROSSI",44.432698,9.020325
"1470","1470","SAN GIORGIO 2\SOTTOROCCA",44.431112,9.018482
"1471","1471","SAN GIORGIO 3\MADONNETTA",44.429490,9.016848
"1472","1472","SAN GIORGIO 4\OROBONI",44.428303,9.015095
"1473","1473","SAN GIORGIO 5\PIANATA",44.427737,9.013113
"1474","1474","SAN GIORGIO 6\SELLA",44.426877,9.010290
"1475","1475","SAN GIORGIO 7",44.426327,9.008760
"1476","1476","SAN GIORGIO 8\NUELO",44.421347,9.004902
"1477","1477","SAN GIORGIO 9\FOSSATO",44.423760,9.001830
"1478","1478","SAN GIORGIO 10\BARILLARO",44.419807,9.001910
"1479","1479","NASCHE 3\COSTA",44.417162,9.000675
"1480","1480","NASCHE 4\BINELLE",44.416847,8.998377
"1481","1481","NASCHE 5\RIMESSA",44.415315,8.995222
"1482","1482","CADIGHIARA 2\TRE PINI",44.413852,8.992603
"1483","1483","CADIGHIARA 3\CASCINE",44.411942,8.990243
"1484","1484","ROTONDA\TANINI",44.408635,8.988182
"1485","1485","SULFUREE 2\AUTOSTRADA",44.428318,8.769532
"1486","1486","SAN DESIDERIO\CAPOLINEA",44.422068,9.009698
"1487","1487","BISAGNO\TERRE ROSSE",44.420443,9.006920
"1488","1488","NASCHE 1\CHIESA",44.419897,9.003885
"1489","1489","NASCHE 2",44.419148,9.001528
"1490","1490","PROVVIDENZA\AVEZZANA",44.417893,8.921033
"1492","1492","NASCHE 4",44.419142,9.001612
"1493","1493","NASCHE 5\CHIESA",44.419860,9.004018
"1494","1494","BISAGNO\TERRE ROSSE",44.420663,9.007098
"1496","1496","APPARIZIONE\CIMITERO",44.404722,9.001108
"1497","1497","PITTO\MONTE FASCE",44.405627,8.999230
"1498","1498","OLIVIERI 1\ORATORIO",44.405018,8.996932
"1499","1499","OLIVIERI 2\CROCE ROSSA",44.404633,8.995605
"1500","1500","OLIVIERI 3\BOCCIARDO",44.403445,8.992717
"1501","1501","MONACO SIMONE 1\BASTIA",44.403410,8.995238
"1502","1502","MONACO SIMONE 2\PENEGO",44.402597,8.993503
"1503","1503","TANINI 1\FONTANA",44.401122,8.991098
"1504","1504","TANINI 2\PONTEVECCHIO",44.402390,8.989365
"1505","1505","TANINI 3\BOCCIARDO",44.403542,8.989553
"1506","1506","TANINI 4\PICA",44.405910,8.988970
"1507","1507","TANINI 5\CIANCIULLO",44.407478,8.989283
"1508","1508","TANINI 6\POSALUNGA",44.408487,8.988430
"1509","1509","TANINI 1\POSALUNGA",44.408435,8.988538
"1510","1510","TANINI 2\CIANCIULLO",44.407287,8.989152
"1511","1511","TANINI 3\PICA",44.405397,8.989000
"1512","1512","TANINI 4\BOCCIARDO",44.403583,8.989520
"1513","1513","TANINI 5\PONTEVECCHIO",44.402243,8.989398
"1514","1514","TANINI 6\FONTANA",44.401117,8.991312
"1515","1515","MONACO SIMONE 1\PENEGO",44.402482,8.993447
"1516","1516","MONACO SIMONE 3\BASTIA",44.403717,8.995245
"1517","1517","OLIVIERI 1\BOCCIARDO",44.403512,8.992858
"1518","1518","OLIVIERI 2\CROCE ROSSA",44.404595,8.995648
"1519","1519","OLIVIERI 3\ORATORIO",44.405037,8.996988
"1520","1520","PITTO\MONTE FASCE",44.405580,8.999223
"1521","1521","GIOVANNI XXIII\CAPOLINEA",44.415075,8.971282
"1522","1522","GIOVANNI XXIII 1",44.414660,8.970753
"1523","1523","GIOVANNI XXIII 2",44.414282,8.970998
"1524","1524","GIOVANNI XXIII 3",44.413738,8.969443
"1525","1525","GIOVANNI XXIII 4",44.413322,8.969520
"1526","1526","GIOVANNI XXIII 1",44.413373,8.969483
"1527","1527","GIOVANNI XXIII 2",44.413657,8.969635
"1528","1528","GIOVANNI XXIII 3",44.414240,8.971147
"1529","1529","GIOVANNI XXIII 4",44.414697,8.970660
"1531","1531","SAFFI 1\ORTIZ",44.401792,8.931540
"1532","1532","MERCATI GENERALI",44.473965,8.908983
"1534","1534","PRINCIPE FS\CAPOLINEA",44.416537,8.921890
"1535","1535","MENOTTI 1\SOLIMAN",44.425333,8.845002
"1537","1537","BALBI 2\PALAZZO REALE",44.415805,8.924705
"1538","1538","CARNIA 1\CELESIA",44.440688,8.891830
"1539","1539","CARNIA 2\TOFANE",44.441942,8.892927
"1540","1540","TOFANE 1\AUTOSTRADA",44.442295,8.894663
"1541","1541","TOFANE 2",44.442600,8.896167
"1542","1542","TOFANE 3",44.443188,8.896267
"1543","1543","PALLAVICINI\CAPOLINEA",44.437368,8.892222
"1544","1544","PIACENZA 11\RESASCO",44.428607,8.953440
"1545","1545","PIACENZA 2\RESASCO",44.428665,8.953812
"1546","1546","OBERDAN 3\PONTE DI NERVI",44.384995,9.032998
"1547","1547","BARACCA\SESTRI",44.424998,8.849335
"1549","1549","BIANCHI 2\BAGNASCO",44.420472,8.880512
"1551","1551","SOMMA 2\NOFFI",44.383183,9.050377
"1552","1552","BENEDETTO XV\ALBERTI",44.406213,8.968497
"1553","1553","TURCHINO 1\MONTANELLA",44.432228,8.769802
"1554","1554","STALLO 3\TAVELLA",44.421995,8.929332
"1557","1557","RIMESSA\CORNIGLIANO",44.415520,8.873752
"1558","1558","CICLAMINI 8\ANEMONI",44.402347,9.005712
"1559","1559","ANEMONI\COSTA D'ORECCHIA",44.400732,9.005090
"1560","1560","CICLAMINI 9\ANEMONI",44.402217,9.005148
"1563","1563","DE MARI",44.429187,8.770657
"1564","1564","SANREMO\BORDIGHERA",44.429412,8.772538
"1565","1565","DIANO MARINA 3\MURTOLA",44.430930,8.774108
"1566","1566","DIANO MARINA 2",44.430848,8.773373
"1567","1567","DIANO MARINA 1\MURTOLA",44.431050,8.774005
"1568","1568","MURTOLA\SANREMO",44.428978,8.773452
"1570","1570","FERREIRA\OSSERVATORIO",44.418388,8.922387
"1571","1571","MASSUCCONE MAZZINI 3",44.458725,8.895998
"1572","1572","MASSUCCONE MAZZINI 5",44.458677,8.896120
"1573","1573","ARMELLINI 1\ISTITUTO CHIOSSONE",44.413242,8.944043
"1574","1574","DOGALI 2\KASSALA",44.417435,8.927003
"1575","1575","ASILO GARBARINO 2",44.415832,8.912867
"1576","1576","ASILO GARBARINO 4",44.415940,8.913118
"1577","1577","CANEPA 1\MALMISTRA",44.427533,8.851018
"1580","1580","DANTE 1\DE FERRARI",44.406360,8.934460
"1581","1581","VESPUCCI\CAPOLINEA",44.430185,8.812085
"1582","1582","VESPUCCI 1\CIVITALI CAMPEGGIO",44.429735,8.813418
"1583","1583","VESPUCCI 2",44.429302,8.812012
"1584","1584","VESPUCCI 3\PRESTINARI",44.428412,8.813687
"1586","1586","MARTIRI LIBERTA'\DE NICOLAY",44.426773,8.814345
"1590","1590","ROVETTA 2\TARIGO",44.428217,8.812018
"1591","1591","PRESTINARI\RICASOLI",44.428557,8.813547
"1592","1592","VESPUCCI 1",44.429230,8.812378
"1593","1593","VESPUCCI 2\CIVITALI CAMPEGGIO",44.429672,8.813532
"1595","1595","TAGGIA\PRA'",44.427785,8.778500
"1596","1596","BRANEGA 1\AUTOSTRADA",44.429677,8.777965
"1597","1597","BRANEGA 2\CAMPO SPORTIVO",44.431333,8.777933
"1598","1598","STASSANO 1",44.432243,8.778785
"1599","1599","STASSANO 2",44.432240,8.779297
"1600","1600","STASSANO\CAPOLINEA",44.432580,8.779633
"1601","1601","STASSANO 1",44.432172,8.779285
"1602","1602","STASSANO 2",44.432263,8.778835
"1603","1603","BRANEGA 1\CAMPO SPORTIVO",44.431250,8.777833
"1604","1604","BRANEGA 2\AUTOSTRADA",44.429560,8.777918
"1605","1605","TAGGIA\PRA'",44.427748,8.778413
"1606","1606","RUBENS\CERUSA",44.427272,8.741915
"1607","1607","VILLA GAVOTTI 1\GIARDINI",44.428682,8.834328
"1608","1608","VILLA GAVOTTI 2\PISCINA",44.430853,8.832233
"1609","1609","VILLA GAVOTTI\CAPOLINEA",44.432840,8.831668
"1610","1610","VILLA GAVOTTI 1\PISCINA",44.430988,8.831845
"1611","1611","VILLA GAVOTTI 2\GIARDINI",44.428480,8.833725
"1612","1612","MONNET\STADIO",44.415283,8.951483
"1613","1613","LODI 3",44.441770,8.960718
"1614","1614","PARKS\VERITA'",44.428288,8.754993
"1615","1615","ROMANA DI VOLTRI 1\NERVALLO",44.426832,8.741150
"1616","1616","ROMANA DI VOLTRI 2",44.425858,8.739435
"1617","1617","ROMANA DI VOLTRI 3\SORIA",44.424935,8.737532
"1618","1618","ROMANA DI VOLTRI 4",44.423592,8.736427
"1619","1619","ROMANA DI VOLTRI 5\CANEPA",44.422845,8.733918
"1620","1620","NUOVA DI CREVARI 1",44.423128,8.731618
"1621","1621","NUOVA DI CREVARI 2",44.422290,8.729307
"1622","1622","NUOVA DI CREVARI 3\GAINOTTI",44.420643,8.725733
"1623","1623","NUOVA DI CREVARI 4",44.423775,8.729575
"1624","1624","NUOVA DI CREVARI 5\FONTANA",44.424038,8.729400
"1626","1626","CREVARI\CAPOLINEA",44.424725,8.730950
"1627","1627","NUOVA DI CREVARI 1\FONTANA",44.424038,8.729280
"1628","1628","NUOVA DI CREVARI 2",44.423818,8.729498
"1629","1629","NUOVA DI CREVARI 3\GAINOTTI",44.420550,8.725453
"1630","1630","NUOVA DI CREVARI 4",44.422165,8.729093
"1631","1631","NUOVA DI CREVARI 5",44.423090,8.732043
"1632","1632","ROMANA DI VOLTRI 1\CANEPA",44.422802,8.733967
"1633","1633","ROMANA DI VOLTRI 2",44.423713,8.736635
"1634","1634","ROMANA DI VOLTRI 3\SORIA",44.424865,8.737647
"1635","1635","ROMANA DI VOLTRI 4",44.425945,8.739678
"1636","1636","ROMANA DI VOLTRI 5\NERVALLO",44.426923,8.741387
"1637","1637","FABBRICHE 1",44.429193,8.742612
"1638","1638","FABBRICHE 2",44.432008,8.740220
"1639","1639","FABBRICHE 3\BRIGNA",44.432850,8.738310
"1640","1640","FABBRICHE 4\ACQUEDOTTO",44.434078,8.736625
"1641","1641","FABBRICHE 5",44.437493,8.736657
"1642","1642","FABBRICHE 6\CHIALE",44.438663,8.732275
"1643","1643","FABBRICHE 7\CHIESA DI CHIALE",44.440535,8.730875
"1644","1644","FABBRICHE 8\AUTOSTRADA",44.442220,8.729892
"1645","1645","FABBRICHE 9",44.444125,8.729075
"1646","1646","FABBRICHE 10",44.445837,8.727802
"1647","1647","FABBRICHE 11",44.446563,8.725605
"1648","1648","FABBRICHE 12",44.447163,8.722003
"1649","1649","FABBRICHE 13",44.447700,8.720283
"1650","1650","FABBRICHE 14\SCUOLE",44.447482,8.718638
"1651","1651","FABBRICHE 15\CHIESA",44.447190,8.717928
"1652","1652","FIORINO 1\COSTA DEL VENTO",44.448330,8.716202
"1653","1653","FIORINO 2\SAMBUCO",44.449182,8.713483
"1654","1654","FIORINO 3",44.452652,8.711873
"1655","1655","FIORINO 4\TIRO A VOLO",44.456973,8.712353
"1656","1656","FIORINO 5",44.459203,8.708717
"1658","1658","FIORINO\CAPOLINEA",44.461590,8.706770
"1659","1659","FIORINO 1",44.459045,8.708523
"1660","1660","FIORINO 2\TIRO A VOLO",44.456842,8.712312
"1661","1661","FIORINO 3",44.452492,8.712132
"1662","1662","FIORINO 4\SAMBUCO",44.449125,8.713475
"1663","1663","FIORINO 5\COSTA DEL VENTO",44.448295,8.716308
"1664","1664","FABBRICHE 1\CHIESA",44.446872,8.717763
"1665","1665","FABBRICHE 2\SCUOLE",44.447472,8.718788
"1666","1666","FABBRICHE 3",44.447623,8.720792
"1667","1667","FABBRICHE 4",44.447010,8.721975
"1668","1668","FABBRICHE 5",44.446628,8.725912
"1669","1669","FABBRICHE 6",44.445735,8.727607
"1670","1670","FABBRICHE 7",44.443973,8.729047
"1671","1671","FABBRICHE 8\AUTOSTRADA",44.442083,8.729892
"1672","1672","FABBRICHE 9\CHIESA DI CHIALE",44.440257,8.730902
"1673","1673","FABBRICHE 10\CHIALE",44.438605,8.732593
"1674","1674","FABBRICHE 11",44.437268,8.736682
"1675","1675","FABBRICHE 12\ACQUEDOTTO",44.434137,8.736507
"1676","1676","FABBRICHE 13\BRIGNA",44.432783,8.738447
"1677","1677","FABBRICHE 14",44.431922,8.740188
"1678","1678","FABBRICHE 15",44.429122,8.742557
"1679","1679","FABBRICHE\CAPOLINEA",44.447660,8.720383
"1681","1681","LEMERLE\AUTOSTRADA",44.432030,8.749885
"1682","1682","OVADA 1\LIBIA",44.433448,8.747785
"1683","1683","OVADA 2\CIMITERO DI VOLTRI",44.436495,8.746188
"1684","1684","OVADA 3\CROVI",44.439068,8.746100
"1685","1685","ACQUASANTA 1\OVADA",44.442273,8.747872
"1686","1686","ACQUASANTA 3",44.444227,8.752395
"1687","1687","ACQUASANTA 4",44.446780,8.751612
"1688","1688","ACQUASANTA 5\CECCA",44.448823,8.749913
"1689","1689","ACQUASANTA 6",44.450732,8.751032
"1690","1690","ACQUASANTA 7",44.451793,8.753110
"1691","1691","ACQUASANTA 8",44.452308,8.755523
"1692","1692","ACQUASANTA 9",44.453145,8.761062
"1693","1693","ACQUASANTA 10",44.455562,8.764927
"1694","1694","ACQUASANTA 11\CORZETTI",44.456758,8.767633
"1695","1695","ACQUASANTA 12\BAIARDA",44.458030,8.768800
"1696","1696","ACQUASANTA\SANTUARIO",44.458257,8.769567
"1697","1697","ACQUASANTA 1\BAIARDA",44.458038,8.768720
"1698","1698","ACQUASANTA 2\CORZETTI",44.456732,8.767462
"1699","1699","ACQUASANTA 3",44.455487,8.764742
"1700","1700","ACQUASANTA 4",44.453220,8.760895
"1701","1701","ACQUASANTA 5",44.452442,8.755403
"1702","1702","ACQUASANTA 6",44.451708,8.752813
"1703","1703","ACQUASANTA 7",44.450762,8.750957
"1704","1704","ACQUASANTA 8\CECCA",44.448730,8.749822
"1705","1705","ACQUASANTA 9",44.446912,8.751400
"1706","1706","ACQUASANTA 10",44.444150,8.752320
"1707","1707","ACQUASANTA 12\OVADA",44.442292,8.747617
"1708","1708","OVADA 1\CROVI",44.438728,8.746038
"1709","1709","OVADA 2\CIMITERO DI VOLTRI",44.435887,8.745798
"1710","1710","OVADA 3\LIBIA",44.433313,8.747833
"1711","1711","LEMERLE\AUTOSTRADA",44.431877,8.750110
"1712","1712","BUFFA 1\POERIO",44.429405,8.755542
"1720","1720","SAVIO\CORNIGLIANO FS",44.415020,8.865288
"1725","1725","SESSANTA\CAPOLINEA",44.420262,8.868455
"1726","1726","SESSANTA 1",44.419428,8.867912
"1727","1727","SESSANTA 2\ELSA",44.417760,8.866133
"1728","1728","MALASPINA 1\SALITA SESSANTA",44.416383,8.864503
"1729","1729","MALASPINA 2\TONALE",44.416943,8.867013
"1730","1730","TONALE\DUFOUR",44.417247,8.868695
"1731","1731","PELLIZZARI\CORNIGLIANO",44.416050,8.871088
"1734","1734","ROLLA\CAPOLINEA",44.418638,8.880145
"1737","1737","DUFOUR\CORNIGLIANO",44.415717,8.868965
"1738","1738","TONALE\DUFOUR",44.417307,8.868977
"1739","1739","MALASPINA",44.416870,8.865845
"1740","1740","SESSANTA 1\MALASPINA",44.416577,8.864365
"1741","1741","SESSANTA 2\ELSA",44.417955,8.866465
"1742","1742","SESSANTA 3",44.419462,8.868048
"1743","1743","FANTI 1\SCASSI",44.412470,8.898553
"1744","1744","FANTI 2\CARREA",44.413077,8.898727
"1745","1745","FANTI 3",44.413370,8.899853
"1746","1746","FANTI 4\CONTE DANTE",44.415117,8.900893
"1747","1747","CARREA 1\FANTI",44.415007,8.899753
"1748","1748","CARREA 2",44.415278,8.899148
"1749","1749","CARREA 3\DERCHI",44.414000,8.898848
"1750","1750","FANTI 5\SCASSI",44.412368,8.898450
"1751","1751","SAN TOMMASO\RIGON",44.427407,8.842633
"1752","1752","TARELLO\BRISCATA",44.428875,8.842642
"1753","1753","SERY 1\NEGROPONTE",44.429542,8.843335
"1754","1754","SERY 2\CATALDI",44.429695,8.844498
"1755","1755","SANTA MARIA COSTA 1\AUTOSTRADA",44.430875,8.845375
"1756","1756","SANTA MARIA COSTA 2\BONFADIO",44.431343,8.845335
"1757","1757","SANTA MARIA COSTA 2\BONFADIO",44.431468,8.844507
"1758","1758","SANTA MARIA COSTA 3\AUTOSTRADA",44.430677,8.845250
"1759","1759","S.G. BATTISTA 3\CATALDI",44.429750,8.844377
"1760","1760","SERY 1\NEGROPONTE",44.429497,8.843097
"1761","1761","SERY 2\TARELLO",44.429033,8.841895
"1762","1762","SAN TOMMASO 1\DE NOTARIS",44.427758,8.842808
"1763","1763","SAN TOMMASO 2\VADO",44.427272,8.841687
"1764","1764","DI VITTORIO\CAPOLINEA",44.431190,8.848293
"1765","1765","TOSCANELLI\RIO MALTEMPO",44.432127,8.847393
"1766","1766","S.G. BATTISTA 1\SCUOLA",44.429497,8.845027
"1767","1767","S.G. BATTISTA 2\GIORDANO",44.428363,8.846625
"1768","1768","COSTA 1\CORRADI",44.426192,8.847765
"1769","1769","COSTA 2\ORIANI",44.425837,8.849238
"1771","1771","DA PERSICO\CORRADI",44.426608,8.847912
"1772","1772","S.G. BATTISTA 1\GIORDANO",44.428273,8.846693
"1773","1773","S.G. BATTISTA 2\SCUOLA",44.429515,8.845177
"1774","1774","TOSCANELLI\RIO MALTEMPO",44.432153,8.847733
"1776","1776","CORDANIERI 1\DE CRISTOFORIS",44.427575,8.787225
"1777","1777","CORDANIERI 2\TORRAZZA",44.429408,8.789255
"1778","1778","CORDANIERI 3\FINALE",44.430493,8.790913
"1779","1779","FINALE",44.431670,8.791325
"1780","1780","QUASIMODO 1\FINALE",44.429817,8.792202
"1781","1781","QUASIMODO 2",44.432010,8.792542
"1782","1782","PAVESE 1",44.431672,8.793348
"1783","1783","PAVESE 2",44.429843,8.793242
"1784","1784","VITTORINI 1",44.429907,8.794158
"1785","1785","VITTORINI 2",44.431753,8.794265
"1786","1786","QUASIMODO 3",44.431730,8.792463
"1787","1787","QUASIMODO 4\FINALE",44.429870,8.792123
"1788","1788","UNGARETTI 6",44.427073,8.796708
"1789","1789","UNGARETTI 8\PRA'",44.425053,8.798808
"1790","1790","PEGLI FS\MUSEI PALLAVICINI",44.425792,8.817038
"1792","1792","RIZZO 1\REXELLO",44.427765,8.810712
"1793","1793","RIZZO 2\SALGARI",44.428678,8.809062
"1794","1794","RIZZO 3\GIARDINO FIORITO",44.429060,8.808852
"1795","1795","GLICINI",44.429652,8.807785
"1796","1796","SALGARI 2",44.429837,8.806768
"1797","1797","SALGARI 3",44.429805,8.806143
"1798","1798","SALGARI 4",44.429827,8.805123
"1799","1799","SALGARI 5\UNGARETTI",44.430947,8.805105
"1800","1800","SALGARI 6\LORENZINI",44.433952,8.806415
"1801","1801","SALGARI 7",44.434282,8.807532
"1802","1802","SALGARI 8\LORENZINI",44.433887,8.806173
"1803","1803","SALGARI 9",44.434607,8.805037
"1804","1804","SALGARI 10",44.435648,8.809788
"1805","1805","SALGARI 11",44.434992,8.810300
"1806","1806","SALGARI 12",44.435825,8.809770
"1807","1807","SALGARI 13",44.434800,8.804983
"1808","1808","SALGARI 14\UNGARETTI",44.430930,8.805033
"1809","1809","SALGARI 15",44.429610,8.805342
"1810","1810","SALGARI 16",44.429978,8.806057
"1811","1811","SALGARI 17",44.429543,8.807112
"1812","1812","RIZZO 1\SALGARI",44.428598,8.808522
"1813","1813","RIZZO 2\REXELLO",44.427600,8.811048
"1814","1814","CALDESI\OSPEDALE",44.424905,8.804695
"1815","1815","LAVIOSA 1",44.426700,8.803505
"1816","1816","LAVIOSA 2",44.427582,8.802473
"1817","1817","LAVIOSA 3\UNGARETTI",44.428243,8.801507
"1818","1818","UNGARETTI 1",44.426727,8.800955
"1819","1819","UNGARETTI 2\SCARPANTO",44.427640,8.799103
"1820","1820","UNGARETTI 3",44.428643,8.797897
"1821","1821","UNGARETTI 5\SABA",44.429035,8.795367
"1822","1822","AQUILEIA\OLIVA",44.432768,8.851475
"1824","1824","DALL'ORTO\CERUSA",44.427343,8.743080
"1825","1825","TOSONOTTI",44.429333,8.744075
"1827","1827","TURCHINO 2\PODESTA'",44.431993,8.767478
"1828","1828","TURCHINO 3\CROCE AZZURRA",44.431710,8.765540
"1829","1829","OLIVA\OSPEDALE DI SESTRI",44.430607,8.851822
"1830","1830","TURCHINO 5\SALVEMINI",44.433683,8.762923
"1831","1831","SALVEMINI 1",44.432942,8.765148
"1832","1832","SALVEMINI 2",44.433007,8.766758
"1833","1833","SALVEMINI 3\DE SANCTIS",44.432817,8.768382
"1834","1834","DE SANCTIS 1\FUNICOLARE",44.434022,8.770743
"1835","1835","DORIA\METRO' PRINCIPE",44.416323,8.920027
"1836","1836","DUE DICEMBRE 1\ADAGLIO",44.437858,8.770670
"1837","1837","DUE DICEMBRE 2",44.436768,8.767853
"1838","1838","DUE DICEMBRE 3\FARMACIA",44.436318,8.766332
"1839","1839","TURCHINO 9",44.434547,8.766928
"1840","1840","TURCHINO 10\SCUOLE",44.434698,8.763803
"1841","1841","TURCHINO 11\VIADOTTO",44.433910,8.762332
"1842","1842","TURCHINO 12\SALVEMINI",44.433588,8.762772
"1843","1843","TURCHINO 13\CRAVASCO",44.432918,8.763953
"1844","1844","TURCHINO 14\CROCE AZZURRA",44.431640,8.766092
"1845","1845","TURCHINO 15\PODESTA'",44.431783,8.768002
"1848","1848","VENTIMIGLIA 1\BUFFA",44.429507,8.759107
"1849","1849","VENTIMIGLIA 2\CHIESA",44.429670,8.761565
"1850","1850","CRAVASCO 1\CHIESA",44.430802,8.764497
"1851","1851","CRAVASCO 2",44.430953,8.766302
"1852","1852","MONTANELLA 1\CAPOLINEA",44.433012,8.770105
"1853","1853","SULFUREE\CRAVASCO",44.431048,8.768680
"1854","1854","CRAVASCO 1",44.430993,8.766213
"1855","1855","CRAVASCO 2\CHIESA",44.430738,8.763643
"1856","1856","VENTIMIGLIA 1\CHIESA",44.429623,8.760885
"1857","1857","VENTIMIGLIA 2\BUFFA",44.429542,8.758785
"1858","1858","TURCHINO 4\CRAVASCO",44.433040,8.762880
"1859","1859","TURCHINO 6\VIADOTTO",44.433898,8.762458
"1860","1860","TURCHINO 7\SCUOLE",44.434637,8.764545
"1861","1861","TURCHINO 8",44.434665,8.765800
"1862","1862","DUE DICEMBRE 1\FARMACIA",44.436388,8.766263
"1863","1863","DUE DICEMBRE 2",44.437187,8.768603
"1864","1864","DUE DICEMBRE 3\ADAGLIO",44.437530,8.770685
"1865","1865","DE SANCTIS 2\NOVELLA",44.433895,8.773365
"1866","1866","DE SANCTIS 3\FUNICOLARE",44.434075,8.770372
"1867","1867","SALVEMINI 4\DE SANCTIS",44.432897,8.768385
"1868","1868","SALVEMINI 5",44.432962,8.766717
"1869","1869","SALVEMINI 6",44.433033,8.765123
"1870","1870","PIETRA LIGURE 1\CRAVASCO",44.430703,8.761653
"1871","1871","PIETRA LIGURE 2\BARBAROSSA",44.430842,8.757498
"1872","1872","VALLECROSIA",44.431185,8.757522
"1873","1873","CALAMANDREI 1\VALLECROSIA",44.431678,8.758387
"1874","1874","CALAMANDREI 2\SCUOLE",44.431557,8.757162
"1875","1875","CALAMANDREI 3",44.433055,8.756952
"1876","1876","CALAMANDREI 4\PASTORE",44.435923,8.756657
"1877","1877","CALAMANDREI 5",44.435102,8.758603
"1878","1878","BENEDICTA 1",44.436005,8.761837
"1879","1879","BENEDICTA 2\POSTE",44.435930,8.765665
"1880","1880","VALLECROSIA",44.431172,8.757100
"1881","1881","CAMOZZINI 1\CERUSA",44.427375,8.743375
"1883","1883","ACQUASANTA 11\PICCARDO",44.443328,8.751582
"1884","1884","BENEDICTA 1\POSTE",44.436022,8.765480
"1885","1885","BENEDICTA 2",44.435602,8.761532
"1886","1886","CALAMANDREI 1",44.435138,8.758725
"1887","1887","CALAMANDREI 2\PASTORE",44.435643,8.756758
"1888","1888","CALAMANDREI 3",44.433503,8.757098
"1889","1889","CALAMANDREI 4\SCUOLE",44.431573,8.757672
"1890","1890","CALAMANDREI 5\VALLECROSIA",44.431537,8.759050
"1891","1891","PIETRA LIGURE 1\BARBAROSSA",44.430758,8.757690
"1892","1892","PIETRA LIGURE 2\CHIVASSO",44.430373,8.759197
"1893","1893","PIETRA LIGURE 3\CRAVASCO",44.430803,8.762280
"1894","1894","VEZZANI 1\AUTOSTRADA",44.437135,8.894518
"1895","1895","WAGNER\CIMITERO DI RIVAROLO",44.442815,8.904338
"1896","1896","LINNEO 1\RESPIGHI",44.443123,8.900895
"1897","1897","LINNEO 2\ALBINONI",44.444483,8.901708
"1898","1898","LINNEO 3\CHERUBINI",44.446218,8.902710
"1899","1899","LINNEO 4\SCUOLE",44.447642,8.904057
"1900","1900","LINNEO 5\BIZET",44.447888,8.907083
"1901","1901","LINNEO 6\FERMI",44.447953,8.908363
"1902","1902","LINNEO 7\S.G. BATTISTA",44.449523,8.906928
"1903","1903","MARITANO 1\VIGLIERO",44.451352,8.908972
"1904","1904","MARITANO 2\BROCCHI",44.453475,8.908032
"1906","1906","MARITANO 5",44.452017,8.906837
"1907","1907","MARITANO 6\CAMPO SPORTIVO",44.452148,8.902750
"1908","1908","MARITANO 7\ORTIGARA",44.452465,8.899112
"1909","1909","MARITANO 8\AUTOSTRADA",44.453052,8.897113
"1911","1911","BOLZANETO 1\ZAMPERINI",44.456148,8.903098
"1912","1912","BOLZANETO 2\CHIESA",44.459085,8.902307
"1913","1913","MARITANO 1\TEGLIA",44.453008,8.895828
"1914","1914","MARITANO 2\AUTOSTRADA",44.452837,8.897062
"1915","1915","MARITANO 3\ORTIGARA",44.452267,8.899272
"1916","1916","MARITANO 4\CAMPO SPORTIVO",44.451987,8.903110
"1917","1917","MARITANO 5",44.452047,8.906928
"1919","1919","MARITANO 8\BROCCHI",44.453415,8.907847
"1920","1920","MARITANO 9\VIGLIERO",44.451092,8.908712
"1922","1922","LINNEO 2\FERMI",44.447827,8.908212
"1923","1923","LINNEO 3\BIZET",44.447948,8.906907
"1924","1924","LINNEO 4\SCUOLE",44.447603,8.903818
"1925","1925","LINNEO 6\ALBINONI",44.444267,8.901268
"1926","1926","LINNEO 7\RESPIGHI",44.443025,8.900568
"1927","1927","WAGNER\CIMITERO DI RIVAROLO",44.442065,8.903433
"1928","1928","CAMBIASO 1\VEZZANI",44.438353,8.896520
"1929","1929","CAMBIASO 2\CHIESA DI RIVAROLO",44.438430,8.893690
"1930","1930","CAMBIASO 3",44.438970,8.895273
"1931","1931","CAMBIASO 4\LINNEO",44.440238,8.896920
"1932","1932","CAMBIASO 5\OSPEDALE CELESIA",44.439842,8.894840
"1933","1933","CAMBIASO 6",44.440745,8.895233
"1934","1934","CAMBIASO 7\TOFANE",44.441455,8.896467
"1935","1935","CAMBIASO 8\RICCIOTTI",44.441940,8.897272
"1936","1936","CAMBIASO 9\BRIGNOLE",44.444397,8.898985
"1937","1937","CAMBIASO 10",44.446042,8.900307
"1938","1938","CAMBIASO 12\COSTA DI TEGLIA",44.447792,8.901730
"1939","1939","CAMBIASO 13\S.G. BATTISTA",44.449587,8.906368
"1940","1940","CAMBIASO 14\CANEVA",44.450187,8.909322
"1941","1941","CAMBIASO 15\KASMAN",44.449592,8.913005
"1942","1942","CAMBIASO 16\CANEVA ALTA",44.448098,8.913490
"1943","1943","CAMBIASO 17\CANDIA",44.448332,8.916560
"1944","1944","CAMBIASO 18\SOLEGGIATA",44.449242,8.918198
"1945","1945","CAMBIASO 19",44.448355,8.919772
"1946","1946","CAMBIASO 20",44.448693,8.924227
"1947","1947","BEGATO\CAPOLINEA",44.447865,8.926100
"1948","1948","CAMBIASO 1",44.448972,8.923888
"1949","1949","CAMBIASO 2",44.448408,8.919663
"1950","1950","CAMBIASO 3\SOLEGGIATA",44.449060,8.918830
"1951","1951","CAMBIASO 4\CANDIA",44.448397,8.916572
"1952","1952","CAMBIASO 5\CANEVA ALTA",44.448143,8.913628
"1953","1953","CAMBIASO 6\KASMAN",44.449853,8.912947
"1954","1954","CAMBIASO 7\CANEVA",44.450155,8.908312
"1955","1955","CAMBIASO 8\S.G. BATTISTA",44.449742,8.906783
"1956","1956","CAMBIASO 9\COSTA DI TEGLIA",44.447820,8.901673
"1957","1957","CAMBIASO 11",44.445880,8.900047
"1958","1958","CAMBIASO 12\BRIGNOLE",44.444510,8.898968
"1959","1959","CAMBIASO 13\RICCIOTTI",44.442158,8.897292
"1960","1960","CAMBIASO 14\TOFANE",44.441457,8.896353
"1961","1961","CAMBIASO 15",44.440532,8.894907
"1962","1962","CAMBIASO 16\OSPEDALE CELESIA",44.439810,8.894632
"1963","1963","CAMBIASO 17\LINNEO",44.440287,8.896878
"1964","1964","CAMBIASO 18",44.439010,8.894985
"1965","1965","CAMBIASO 19\CHIESA DI RIVAROLO",44.438237,8.893783
"1966","1966","CAMBIASO 20\VEZZANI",44.438113,8.896630
"1967","1967","BROCCHI\CAPOLINEA",44.453812,8.901740
"1968","1968","BROCCHI 1\PINOLLA",44.454278,8.904598
"1969","1969","BROCCHI 2\ACQUAMARSA",44.453815,8.907140
"1970","1970","BROCCHI 1\ACQUAMARSA",44.453942,8.907120
"1971","1971","BROCCHI 2\PINOLLA",44.454330,8.904675
"1972","1972","CAMPORA\CAPOLINEA",44.457320,8.925775
"1973","1973","CHIESA GEMINIANO 1",44.459158,8.923115
"1974","1974","CHIESA GEMINIANO 2",44.459432,8.919717
"1975","1975","CHIESA GEMINIANO 3",44.458377,8.921903
"1976","1976","CHIESA GEMINIANO 4",44.457240,8.921125
"1977","1977","CHIESA GEMINIANO 5\FERRARI",44.458470,8.916285
"1978","1978","CHIESA GEMINIANO 6\SCUOLA",44.457585,8.914500
"1979","1979","CHIESA GEMINIANO 7",44.457753,8.913215
"1980","1980","CHIESA GEMINIANO 8",44.456978,8.913670
"1981","1981","CHIESA GEMINIANO 9\CHIAPPERINO",44.456108,8.916158
"1982","1982","CHIESA GEMINIANO 10",44.455637,8.912783
"1983","1983","CHIESA GEMINIANO 11",44.456342,8.910047
"1984","1984","GEMINIANO 1\PINOLLA",44.456052,8.906527
"1985","1985","GEMINIANO 2\BRASILE",44.455818,8.905010
"1987","1987","GIRO DEL VENTO\GEMINIANO",44.455305,8.903180
"1988","1988","GEMINIANO 2\PINOLLA",44.455992,8.907055
"1989","1989","CHIESA GEMINIANO 1",44.456367,8.910322
"1990","1990","CHIESA GEMINIANO 2",44.455615,8.913023
"1991","1991","CHIESA GEMINIANO 3\CHIAPPERINO",44.456118,8.915993
"1992","1992","CHIESA GEMINIANO 4",44.456978,8.913513
"1993","1993","CHIESA GEMINIANO 5",44.457530,8.913430
"1994","1994","CHIESA GEMINIANO 6\SCUOLA",44.457807,8.914320
"1995","1995","CHIESA GEMINIANO 7\FERRARI",44.458500,8.916490
"1996","1996","CHIESA GEMINIANO 8",44.457163,8.921002
"1997","1997","CHIESA GEMINIANO 9",44.458765,8.922083
"1998","1998","CHIESA GEMINIANO 10",44.459535,8.919592
"1999","1999","CHIESA GEMINIANO 11",44.459312,8.923145
"2001","2001","CASSISSA\CHIESA",44.477085,8.909145
"2002","2002","MOREGO 2",44.475207,8.907617
"2003","2003","MOREGO 4\BORNETO",44.471637,8.904362
"2004","2004","GEMINIANO 1\BRASILE",44.455752,8.905000
"2005","2005","SAN BIAGIO 3",44.475247,8.895285
"2006","2006","SAN BIAGIO 4",44.478710,8.890672
"2007","2007","SAN BIAGIO 5\CHIESA",44.481713,8.890892
"2008","2008","SAN BIAGIO\CAPOLINEA",44.483820,8.890360
"2009","2009","SAN BIAGIO 1\CHIESA",44.481885,8.890627
"2010","2010","SAN BIAGIO 2",44.478453,8.890603
"2011","2011","SAN BIAGIO 3",44.475167,8.895447
"2012","2012","MOREGO 1\MORIGALLO",44.470712,8.903915
"2013","2013","MOREGO 3\BORNETO",44.471850,8.904890
"2014","2014","MOREGO 5",44.475103,8.907680
"2015","2015","CASSISSA\CHIESA",44.477048,8.909220
"2016","2016","PORCILE",44.477895,8.909245
"2018","2018","FRA' PANTALEO\BOLZANETO FS",44.459210,8.902098
"2020","2020","SPINOLA\BASSI",44.421480,8.925812
"2021","2021","SARDORELLA 2\MAFFEI",44.470108,8.908027
"2022","2022","SARDORELLA 3\BOCCHETTINA",44.471212,8.909282
"2023","2023","SARDORELLA 4\PONTE CIAI",44.473558,8.912150
"2024","2024","SARDORELLA 5\BELGRANO",44.474812,8.914720
"2025","2025","BELGRANO 1\SOCIETA' OPERAIA",44.473592,8.916175
"2026","2026","BELGRANO 2",44.471595,8.917248
"2027","2027","BELGRANO 3",44.472960,8.918652
"2028","2028","CHIESA DI CREMENO\CAPOLINEA",44.472730,8.918290
"2029","2029","BELGRANO 1",44.473053,8.918487
"2030","2030","BELGRANO 2",44.471865,8.917217
"2031","2031","BELGRANO 3\SOCIETA' OPERAIA",44.473877,8.916043
"2032","2032","BELGRANO 4\SARDORELLA",44.474600,8.915873
"2033","2033","PONTE CIAI\SARDORELLA",44.474607,8.913390
"2036","2036","PAGANINI\PONTE CAFFARO",44.415918,8.935143
"2037","2037","PIAZZA DANTE\FIESCHI",44.404987,8.936177
"2038","2038","N.S. DEL GAZZO\CAPOLINEA",44.442480,8.847052
"2040","2040","ALLENDE 2",44.451832,8.974230
"2041","2041","ALLENDE 3\SCUOLE",44.452957,8.975432
"2044","2044","OPISSO 2\PIANDILUCCO",44.426713,8.819647
"2045","2045","MOLASSANA\CAPOLINEA",44.454532,8.980013
"2046","2046","MOLASSANA\CAPOLINEA",44.454468,8.979830
"2047","2047","FONTANEGLI\CHIESA",44.443900,9.026082
"2048","2048","ADAMOLI 4\MERELLO",44.447990,8.972187
"2049","2049","LODI 9",44.441807,8.960945
"2050","2050","DINEGRO\CAPOLINEA",44.412942,8.909877
"2051","2051","SAN TEODORO\FASSOLO",44.414485,8.912720
"2052","2052","ASILO GARBARINO 1\CHIABRERA",44.415550,8.913047
"2053","2053","ASILO GARBARINO 3",44.416115,8.912463
"2054","2054","ASILO GARBARINO 4\FORLI'",44.416258,8.912097
"2055","2055","ASILO GARBARINO\CAPOLINEA",44.418158,8.911783
"2056","2056","ASILO GARBARINO 2\FORLI'",44.416245,8.912175
"2057","2057","ASILO GARBARINO 3",44.416153,8.912593
"2058","2058","ASILO GARBARINO 5\CHIABRERA",44.415465,8.913082
"2059","2059","PESTARINO\CAPOLINEA",44.420027,8.909582
"2060","2060","BIANCO 1",44.425402,8.910397
"2061","2061","BIANCO 2",44.427600,8.908702
"2062","2062","BIANCO 3\SAN MARINO",44.428627,8.907953
"2063","2063","BIANCO 5\MURA DI GRANAROLO",44.427497,8.906032
"2064","2064","MURA DI GRANAROLO 1\BIANCO",44.427005,8.905365
"2065","2065","MURA DI GRANAROLO 2\BEGATO",44.429433,8.908255
"2066","2066","PIANI DI FREGOSO 1\FORTI",44.433092,8.912710
"2067","2067","PIANI DI FREGOSO 2",44.434328,8.912990
"2068","2068","PIANI DI FREGOSO 3",44.436230,8.915517
"2069","2069","FREGOSO\CAPOLINEA",44.437482,8.916762
"2070","2070","PIANI DI FREGOSO 1",44.436133,8.915393
"2071","2071","PIANI DI FREGOSO 2",44.434277,8.912925
"2072","2072","PIANI DI FREGOSO 3\FORTI",44.432867,8.912660
"2073","2073","MURA DI GRANAROLO 1\BEGATO",44.429453,8.908485
"2074","2074","MURA DI GRANAROLO 2\BIANCO",44.427055,8.905302
"2075","2075","BIANCO 6\MURA DI GRANAROLO",44.427542,8.906160
"2076","2076","BIANCO 7\SAN MARINO",44.428347,8.908142
"2077","2077","BIANCO 8",44.427362,8.908863
"2078","2078","BIANCO 9",44.425465,8.910335
"2079","2079","GRANAROLO",44.424730,8.911062
"2081","2081","BRACELLI 1\SCALINATA BRACELLI",44.417370,8.958017
"2082","2082","BRACELLI 2\LAMBOGLIA",44.418228,8.960898
"2083","2083","BRACELLI 3\CAPRIOLO",44.418675,8.963362
"2084","2084","BRACELLI 4\COPPEDE'",44.418808,8.961788
"2085","2085","BRACELLI 5\SALITA DELL'AQUILA",44.419543,8.958447
"2086","2086","BRACELLI 6\ROBINO",44.422063,8.958950
"2087","2087","LORIA 1\MAGRETTI",44.420880,8.959137
"2088","2088","LORIA 2\FEA",44.422622,8.960563
"2089","2089","LORIA 3\FRATELLI CERVI",44.421605,8.960702
"2090","2090","LORIA 4\BISCIONE 1",44.424388,8.961877
"2091","2091","LORIA 5\BISCIONE 2",44.425070,8.959528
"2092","2092","LORIA 6\BISCIONE 3",44.424105,8.957478
"2093","2093","FEA 1\BISCIONE 4",44.423693,8.954892
"2094","2094","FEA 2\BISCIONE 5",44.422853,8.956053
"2095","2095","FEA 3\BISCIONE 6",44.424175,8.958437
"2096","2096","FEA 4\EMERY",44.424618,8.960403
"2097","2097","FEA 5\LORIA",44.423225,8.960910
"2098","2098","BRACELLI 1\ROBINO",44.421840,8.958827
"2099","2099","BRACELLI 2\SALITA DELL'AQUILA",44.419157,8.958345
"2100","2100","BRACELLI 3\COPPEDE'",44.418703,8.962160
"2101","2101","BRACELLI 4\CAPRIOLO",44.418472,8.962845
"2102","2102","BRACELLI 5\LAMBOGLIA",44.418310,8.960678
"2103","2103","BRACELLI 6\PASSO BRACELLI",44.417710,8.957665
"2104","2104","CHIESA SAN CIPRIANO",44.498305,8.913085
"2105","2105","CHIESA SAN CIPRIANO",44.498360,8.913173
"2106","2106","ITALIA 6\BOCCADASSE",44.389903,8.972233
"2107","2107","MOREGO 3\IIT",44.474645,8.906873
"2108","2108","MOREGO 4\IIT",44.474510,8.906837
"2110","2110","VOLTRI FS\CAPOLINEA",44.428452,8.759880
"2111","2111","FIRENZE 1\CARBONARA",44.415145,8.932980
"2112","2112","STROZZI\FIRENZE",44.421297,8.930313
"2113","2113","STALLO 1\GUIDOBONO",44.422078,8.930097
"2114","2114","AUSONIA",44.422368,8.931607
"2115","2115","STALLO 2\AUSONIA",44.423828,8.929592
"2116","2116","STALLO 4\AUSONIA",44.422700,8.930252
"2117","2117","STROZZI\FIRENZE",44.421188,8.930200
"2118","2118","FEREGGIANO 2\BIGA",44.416618,8.960490
"2119","2119","BIGA 1",44.416008,8.959780
"2120","2120","BIGA 2\ONORATO",44.415857,8.961313
"2121","2121","BIGA 3\MASINA",44.415497,8.960423
"2122","2122","BIGA 4\BELLOTTI",44.414832,8.959637
"2123","2123","AMARENA 1\SALITA DELL'ORSO",44.413988,8.959073
"2125","2125","MARCHINI 2\AYROLI",44.413018,8.957343
"2126","2126","AYROLI\PAVERANO",44.411143,8.956158
"2127","2127","GALILEO FERRARIS\SCUOLE",44.416468,8.957633
"2128","2128","MARASSI\ROSMINI",44.417283,8.955073
"2129","2129","ROBINO 2",44.419813,8.956755
"2130","2130","ROBINO 3\ZENA",44.421307,8.957478
"2131","2131","ROBINO 4",44.420793,8.956660
"2132","2132","ROBINO 5",44.420308,8.955540
"2133","2133","ROBINO 6\FARMACIA",44.421085,8.956128
"2134","2134","ROBINO 7\GIGLIOLI",44.422602,8.957180
"2135","2135","ROBINO 8",44.423467,8.958743
"2136","2136","ROBINO 9\BRACELLI",44.423023,8.959855
"2137","2137","IMPERIALE\CAPOLINEA",44.411245,8.963798
"2138","2138","IMPERIALE 1\FASSICOMO",44.410327,8.962460
"2142","2142","TORTI\TERRALBA",44.407397,8.959398
"2143","2143","D'ALBERTIS 1\REVELLI",44.408408,8.957707
"2144","2144","SOLARI\SAVELLI",44.412217,8.958883
"2148","2148","DONAVER 4\FERRETTO",44.410673,8.960340
"2149","2149","DONAVER 5\IMPERIALE",44.409542,8.961340
"2150","2150","IMPERIALE 1\FASSICOMO",44.410410,8.962572
"2151","2151","SAN BENEDETTO\AMBA ALAGI",44.415865,8.916287
"2154","2154","TORTONA 1",44.426080,8.950207
"2155","2155","TORTONA 2",44.425565,8.950522
"2156","2156","TORTONA 3",44.424968,8.951143
"2157","2157","TORTONA 4\ROVERETO",44.424465,8.951088
"2158","2158","TORTONA 5",44.425022,8.952462
"2159","2159","ROVERETO 1\TORTONA",44.423987,8.950167
"2160","2160","ROVERETO 2\MONTENERO",44.422673,8.949907
"2161","2161","MONTE NERO 1",44.421968,8.949320
"2162","2162","MONTENERO 2\MONTE ROSA",44.420810,8.950258
"2163","2163","COSTA\PLATANI",44.420622,8.951303
"2164","2164","GARRASSINI\CAPOLINEA",44.425270,8.948977
"2165","2165","BOBBIO\DA PASSANO",44.421577,8.946893
"2167","2167","SAN MARTINO STRUPPA\CAPOLINEA",44.460133,9.024498
"2168","2168","TROSSARELLI 1\GAVE",44.459493,9.024963
"2169","2169","TROSSARELLI 3\CA' DI COSTA",44.458805,9.024908
"2170","2170","TROSSARELLI 4\LOILA'",44.458212,9.022765
"2171","2171","TROSSARELLI 5\PAXO",44.456823,9.020765
"2172","2172","TROSSARELLI 6",44.457295,9.022633
"2173","2173","TROSSARELLI 7\CHIAPPA",44.455762,9.021443
"2174","2174","TROSSARELLI 8\CA' DRIELLA",44.454795,9.019353
"2175","2175","TROSSARELLI 9\SAN COSIMO",44.454360,9.020930
"2176","2176","TROSSARELLI 10\SCUOLE",44.453952,9.019500
"2177","2177","TROSSARELLI 11",44.453772,9.016688
"2178","2178","TROSSARELLI 12\CALANCA",44.452618,9.014322
"2179","2179","TROSSARELLI 13\LOGGIA",44.452542,9.013248
"2180","2180","TROSSARELLI 14\FILTRI",44.452708,9.017495
"2181","2181","TROSSARELLI 15",44.452023,9.016717
"2182","2182","TROSSARELLI 16\NOCETI",44.451012,9.014458
"2183","2183","TROSSARELLI 17\FAZIO",44.450668,9.010502
"2184","2184","TROSSARELLI 18\GAMBONIA",44.448900,9.008455
"2185","2185","CANEPA 1\ROSATA",44.447567,9.010168
"2186","2186","CANEPA 2\TORRE DI BAVARI",44.447538,9.013400
"2187","2187","CANEPA 3\COSTA",44.447925,9.014845
"2188","2188","VERAZZANO 1",44.447328,9.016995
"2189","2189","VERAZZANO 2\CASTAGNELLO",44.446505,9.020173
"2190","2190","VERAZZANO 3",44.445805,9.021177
"2191","2191","VERAZZANO 4\FUNDEGA",44.444233,9.022187
"2192","2192","VERAZZANO 5\VILLA FERRETTO",44.443553,9.022895
"2193","2193","VERAZZANO 6\SCUOLA",44.443395,9.023823
"2194","2194","VERAZZANO 7\TRINCHI",44.445898,9.025798
"2195","2195","VERAZZANO 8",44.445547,9.026303
"2196","2196","CIMITERO DI CORONATA",44.428438,8.870207
"2197","2197","VERAZZANO 1",44.445682,9.026480
"2198","2198","VERAZZANO 2\TRINCHI",44.445762,9.025562
"2199","2199","VERAZZANO 3\SCUOLA",44.443447,9.023802
"2200","2200","VERAZZANO 4\VILLA FERRETTO",44.443595,9.022833
"2201","2201","VERAZZANO 5\FUNDEGA",44.444343,9.022403
"2202","2202","VERAZZANO 6",44.445868,9.021172
"2203","2203","VERAZZANO 7\CASTAGNELLO",44.446842,9.020342
"2204","2204","VERAZZANO 8",44.447402,9.016910
"2205","2205","CANEPA 1\COSTA",44.447947,9.014792
"2206","2206","CANEPA 2\TORRE DI BAVARI",44.447593,9.012945
"2207","2207","CANEPA 3\ROSATA",44.447757,9.010197
"2208","2208","TROSSARELLI 1\RITALE",44.449578,9.011368
"2209","2209","TROSSARELLI 2\GAMBONIA",44.448948,9.008335
"2210","2210","TROSSARELLI 3\FAZIO",44.450660,9.010655
"2211","2211","TROSSARELLI 4\NOCETI",44.450928,9.014210
"2212","2212","TROSSARELLI 5",44.451927,9.016607
"2213","2213","TROSSARELLI 6\FILTRI",44.452892,9.016712
"2214","2214","TROSSARELLI 7\LOGGIA",44.452678,9.013330
"2215","2215","TROSSARELLI 8\CALANCA",44.452632,9.014455
"2216","2216","TROSSARELLI 9",44.453772,9.017080
"2217","2217","TROSSARELLI 10\SCUOLE",44.453912,9.019920
"2218","2218","TROSSARELLI 11\SAN COSIMO",44.454468,9.020873
"2219","2219","TROSSARELLI 12\CA' DRIELLA",44.454852,9.019307
"2220","2220","TROSSARELLI 13\CHIAPPA",44.455892,9.021650
"2221","2221","TROSSARELLI 14",44.457355,9.022412
"2222","2222","TROSSARELLI 15\PAXO",44.456865,9.020898
"2223","2223","TROSSARELLI 16\LOILA'",44.458198,9.022820
"2224","2224","TROSSARELLI 17\CA' DI COSTA",44.458747,9.024948
"2225","2225","TROSSARELLI 19\GAVE",44.459438,9.025133
"2226","2226","PRELI\CAPOLINEA",44.442818,8.956287
"2227","2227","LODI 1\SECONDA CADALE",44.442168,8.956127
"2228","2228","LODI 2\PRIMA CADALE",44.441928,8.958697
"2229","2229","LODI 4",44.441025,8.958478
"2230","2230","LODI 5",44.439922,8.959522
"2231","2231","LODI 6\ASILO",44.440188,8.960672
"2232","2232","LODI 7",44.440617,8.961765
"2233","2233","LODI 8",44.439298,8.961572
"2234","2234","LODI 9",44.439258,8.959300
"2235","2235","LODI 11\SCUOLA MAZZINI",44.437677,8.961770
"2236","2236","MOGADISCIO 10\MERMI",44.439143,8.981128
"2238","2238","LODI 3",44.439163,8.959523
"2239","2239","LODI 4",44.439378,8.961652
"2240","2240","LODI 5",44.440503,8.961850
"2241","2241","LODI 6\ASILO",44.440072,8.960533
"2242","2242","LODI 7",44.440070,8.959338
"2243","2243","LODI 8",44.440952,8.958800
"2244","2244","LODI 10\PRIMA CADALE",44.441998,8.958397
"2245","2245","LODI 11\SECONDA CADALE",44.442218,8.956105
"2246","2246","RIOMAGGIORE 1\SAN GIACOMO",44.461182,8.978475
"2247","2247","RIOMAGGIORE 2",44.462687,8.976805
"2248","2248","RIOMAGGIORE 3",44.463413,8.974455
"2249","2249","RIOMAGGIORE 4",44.464023,8.975807
"2250","2250","RIOMAGGIORE 5\SAN GIACOMO",44.463482,8.978393
"2251","2251","RIOMAGGIORE 6\CADATO DI PINO",44.464648,8.979230
"2252","2252","RIOMAGGIORE 7\SCIARRETTA",44.465010,8.977938
"2253","2253","CASTELLO DI PINO 1",44.466185,8.976077
"2254","2254","CASTELLO DI PINO 2",44.466127,8.977793
"2255","2255","CASTELLO DI PINO",44.466862,8.975932
"2256","2256","CASTELLO DI PINO 1",44.466137,8.977648
"2257","2257","CASTELLO DI PINO 2",44.466172,8.975978
"2258","2258","RIOMAGGIORE 1\SCIARRETTA",44.464918,8.978122
"2259","2259","RIOMAGGIORE 2\CADATO DI PINO",44.464588,8.979102
"2260","2260","RIOMAGGIORE 3\SAN GIACOMO",44.463603,8.978267
"2261","2261","RIOMAGGIORE 4",44.464122,8.975573
"2262","2262","RIOMAGGIORE 5",44.463393,8.974627
"2263","2263","RIOMAGGIORE 6",44.462682,8.976965
"2264","2264","RIOMAGGIORE 7\SAN GIACOMO",44.461052,8.978592
"2265","2265","MONTELUNGO 1\CASTAGNATO",44.442520,8.991728
"2266","2266","MONTELUNGO 2",44.441653,8.993978
"2267","2267","MONTELUNGO 3\SALITA SERINO",44.441623,9.001782
"2268","2268","MONTELUNGO 4\SERINO",44.440623,9.003500
"2269","2269","MONTELUNGO 5\SUPERIORE ROSATA",44.439047,9.008735
"2270","2270","MONTELUNGO 6\SERRATO",44.437940,9.011700
"2271","2271","MONTELUNGO 7\CADATO",44.436845,9.012287
"2272","2272","MONTELUNGO 8",44.435637,9.013697
"2273","2273","MONTELUNGO 9\POGGIONE",44.433630,9.016593
"2274","2274","MONTELUNGO 10\BAVARI",44.434282,9.019107
"2275","2275","SAN COLOMBANO 2\COSTA BAVARI",44.436587,9.022335
"2276","2276","SAN COLOMBANO 3",44.437942,9.025723
"2277","2277","SAN COLOMBANO 4\VIGO DI FASSA",44.440550,9.026623
"2278","2278","SAN COLOMBANO 5",44.442442,9.026008
"2279","2279","FONTANEGLI\CHIESA",44.444167,9.026202
"2281","2281","SAN COLOMBANO 1",44.442153,9.025973
"2282","2282","SAN COLOMBANO 2\VIGO DI FASSA",44.440517,9.026588
"2283","2283","SAN COLOMBANO 3",44.437830,9.025495
"2284","2284","SAN COLOMBANO 4\COSTA BAVARI",44.436668,9.022285
"2285","2285","MONTELUNGO 1\BAVARI",44.434325,9.018913
"2286","2286","MONTELUNGO 2\POGGIONE",44.433717,9.016170
"2287","2287","MONTELUNGO 3",44.435752,9.013557
"2288","2288","MONTELUNGO 4\CADATO",44.436990,9.012353
"2289","2289","MONTELUNGO 5\SERRATO",44.438095,9.011623
"2290","2290","MONTELUNGO 6\SUPERIORE ROSATA",44.439002,9.008307
"2291","2291","MONTELUNGO 7\SERINO",44.440962,9.003313
"2292","2292","MONTELUNGO 8\SALITA SERINO",44.441545,9.001612
"2293","2293","MONTELUNGO 9",44.441705,8.993532
"2294","2294","MONTELUNGO 10\CASTAGNATO",44.442752,8.991787
"2295","2295","PINO SOPRANO\CHIESA",44.467493,8.962262
"2296","2296","PINO 2\COSTA DI PINO",44.464648,8.962003
"2297","2297","PINO 3\SALITA RIO MAGGIORE",44.465355,8.963860
"2298","2298","PINO 4",44.464140,8.964432
"2299","2299","PINO 5\CARPENERA",44.462500,8.966835
"2300","2300","PINO 6",44.460235,8.969617
"2301","2301","PINO 7\CA' MOSCINO",44.459680,8.971545
"2302","2302","PINO 8\CA' BERODI",44.459710,8.972800
"2303","2303","PINO 9",44.457890,8.971972
"2304","2304","PINO 10",44.456850,8.973020
"2305","2305","PINO 12\CODEVIOLA",44.454877,8.973563
"2306","2306","PINO 13\CA' DE RISSI",44.455287,8.975557
"2307","2307","ALLENDE 1\SCUOLE",44.452713,8.975233
"2308","2308","ALLENDE 2",44.451632,8.973873
"2309","2309","ALLENDE 3\PIACENZA",44.450633,8.972408
"2310","2310","PINO 1\CA' DE RISSI",44.455437,8.975773
"2311","2311","PINO 2\CODEVIOLA",44.454830,8.973355
"2312","2312","PINO 3\PINO CEMBRO",44.455918,8.972945
"2313","2313","PINO 5",44.457837,8.972403
"2314","2314","PINO 6\CA' BERODI",44.459795,8.972862
"2315","2315","PINO 7\CA' MOSCINO",44.459395,8.971275
"2316","2316","PINO 8",44.460412,8.969533
"2317","2317","PINO 9\CARPENERA",44.462697,8.966972
"2318","2318","PINO 10",44.464273,8.964305
"2319","2319","PINO 11\SALITA RIO MAGGIORE",44.465235,8.963647
"2320","2320","PINO 12\COSTA DI PINO",44.464775,8.961923
"2321","2321","PINO 14\CHIESA",44.467158,8.962403
"2322","2322","CIMITERO PINO",44.468403,8.961700
"2323","2323","CIMITERO PINO",44.468443,8.961902
"2324","2324","VALTREBBIA 1",44.443618,8.983252
"2325","2325","VALTREBBIA 2\PASSO ROCCA",44.442560,8.981088
"2326","2326","VALTREBBIA 3\CASE ROSA",44.442342,8.978032
"2327","2327","VALTREBBIA 4\GRADONI",44.441443,8.975895
"2328","2328","VALTREBBIA 5\COSTA S. EUSEBIO",44.440325,8.974228
"2329","2329","VALFONTANABUONA 1\SCIORBA",44.438115,8.971532
"2330","2330","VALFONTANABUONA 2\CAMPI",44.438913,8.974023
"2331","2331","VALFONTANABUONA 1\CAMPI",44.438787,8.973903
"2332","2332","VALFONTANABUONA 2\SCIORBA",44.438302,8.972170
"2333","2333","VALTREBBIA 1\COSTA S. EUSEBIO",44.440328,8.974380
"2334","2334","VALTREBBIA 2\GRADONI",44.441410,8.975938
"2335","2335","VALTREBBIA 3\CASE ROSA",44.442153,8.978570
"2336","2336","VALTREBBIA 4\PASSO ROCCA",44.442562,8.981623
"2337","2337","VALTREBBIA 5",44.443372,8.983327
"2338","2338","S.F. DA PAOLA",44.419293,8.914920
"2339","2339","SOLARI\CELLINI",44.412548,8.958508
"2340","2340","MARTINEZ\CAPOLINEA",44.406412,8.957320
"2346","2346","NOVELLA 1\DE SANCTIS",44.433987,8.772932
"2347","2347","NOVELLA 2\FUNICOLARE",44.434757,8.772175
"2348","2348","NOVELLA 3",44.435880,8.770430
"2349","2349","NOVELLA 1",44.435798,8.770327
"2350","2350","NOVELLA 2\FUNICOLARE",44.434625,8.771977
"2351","2351","NOVELLA 3\DE SANCTIS",44.433873,8.772777
"2353","2353","BRIGNOLE FS\CAPOLINEA",44.406310,8.945685
"2354","2354","OPISSO 1\PIANDILUCCO",44.426605,8.819697
"2355","2355","CIMAROSA\GIOVANNI MAGGIO",44.396345,8.993127
"2356","2356","CAMPO 49",44.433650,8.947442
"2357","2357","BOLOGNA 2\MERCATO",44.419780,8.910137
"2358","2358","BOLOGNA 4\MERCATO",44.419545,8.910105
"2359","2359","ALMERIA\SANT'UGO",44.419445,8.923462
"2360","2360","CAMOZZINI 4\CERUSA",44.427538,8.743600
"2361","2361","DEGOLA\FIUMARA",44.414302,8.883872
"2362","2362","CICLAMINI 7\NARCISI",44.400530,9.002357
"2363","2363","SAN TEODORO\FASSOLO",44.414360,8.912550
"2365","2365","PRA' 2\BIOMEDICAL",44.425292,8.796465
"2366","2366","ASSAROTTI 3\ASL",44.413078,8.945448
"2367","2367","BAVARI\CHIESA",44.432755,9.018182
"2368","2368","SAN COLOMBANO 1\MONTELUNGO",44.434360,9.019312
"2369","2369","CANTORE 5\COL",44.410970,8.904825
"2370","2370","CARRARA 5\V MAGGIO",44.391443,8.990567
"2371","2371","CARRARA 4\GIORGIO CHIESA",44.393442,8.990145
"2372","2372","CARRARA 3\GIOVANNI MAGGIO",44.394938,8.992492
"2374","2374","CARRARA 4\TURR",44.395707,8.994597
"2375","2375","CICLAMINI 1\PRASCA",44.397372,8.996890
"2376","2376","CICLAMINI 2\DA PASSANO",44.398695,8.997853
"2377","2377","CICLAMINI 3\CAMPANULE",44.397897,9.000095
"2378","2378","CICLAMINI 4",44.398952,8.999590
"2379","2379","CICLAMINI 5\ERICHE",44.400645,9.000885
"2380","2380","CICLAMINI 6\IRIS",44.399760,9.001152
"2381","2381","CAMPANULE 3\VIOLE",44.397288,9.000965
"2382","2382","CARRARA 3\GIOVANNI MAGGIO",44.394855,8.992545
"2383","2383","CAMPANULE 2",44.396608,9.003745
"2384","2384","IRIS 3\CAMPANULE",44.397800,9.005003
"2385","2385","IRIS 2",44.397858,9.004107
"2386","2386","IRIS 1",44.397700,9.002282
"2387","2387","CICLAMINI 7\CAMPANULE",44.398018,8.999605
"2388","2388","CICLAMINI 8\DA PASSANO",44.398522,8.997437
"2390","2390","TOGLIATTI 1\EUROPA",44.392145,9.010585
"2391","2391","TOGLIATTI 2\PALLOA",44.393487,9.012290
"2392","2392","TOGLIATTI 3\DE GASPERI",44.394668,9.013318
"2393","2393","TERRACINI",44.393868,9.013768
"2394","2394","NENNI 1\PARRI",44.392323,9.012965
"2395","2395","NENNI 2\COLLE OMETTI",44.391558,9.014545
"2396","2396","DON STURZO 1",44.391938,9.014327
"2397","2397","DON STURZO 2",44.393272,9.014212
"2398","2398","TOGLIATTI 5\DE GASPERI",44.394688,9.013260
"2399","2399","TOGLIATTI 6\PALLOA",44.393660,9.012322
"2400","2400","OSPEDALE\INGRESSO PRINCIPALE",44.407747,8.970377
"2403","2403","PADIGLIONI 9-13",44.408287,8.973383
"2404","2404","MONOBLOCCO",44.409288,8.973805
"2406","2406","MARAGLIANO",44.410177,8.975620
"2408","2408","MALATTIE INFETTIVE",44.410753,8.971298
"2409","2409","OFFICINE",44.409823,8.970147
"2410","2410","MEDICINA",44.409803,8.971552
"2411","2411","TIMAVO\POSALUNGA",44.403672,8.984312
"2412","2412","ISONZO 1\EUROPA",44.402565,8.983203
"2413","2413","ISONZO 2\RAGAZZI DEL 99",44.399353,8.981493
"2414","2414","ISONZO 2\RAGAZZI DEL 99",44.399488,8.981682
"2415","2415","ISONZO 3\BOTTINI",44.402215,8.982945
"2416","2416","TIMAVO\POSALUNGA",44.403932,8.984780
"2417","2417","CADIGHIARA\EX DAZIO",44.415230,8.994028
"2422","2422","CARRARA 2\GIORGIO CHIESA",44.393653,8.990280
"2423","2423","CARRARA 1\V MAGGIO",44.392242,8.991043
"2424","2424","MOREGO 1",44.476145,8.907700
"2425","2425","MOREGO 6",44.476223,8.907868
"2428","2428","ACQUASANTA\SANTUARIO",44.458380,8.769392
"2429","2429","ACQUASANTA FS",44.458445,8.772870
"2430","2430","BANDIERA\CAPOLINEA",44.414040,8.928588
"2431","2431","CARBONARA\FUNICOLARE",44.416818,8.931970
"2432","2432","CARBONARA\FUNICOLARE",44.416825,8.931412
"2433","2433","CANCELLIERE 3\COSTA",44.417013,8.935450
"2434","2434","SAN SIMONE\CAPOLINEA",44.421803,8.935237
"2435","2435","MARITANO 7\SBARBARO",44.453225,8.906003
"2436","2436","MARITANO 3\SBARBARO",44.453272,8.905815
"2443","2443","DANTE\DE FERRARI",44.406552,8.934440
"2444","2444","DANTE\DE FERRARI",44.406317,8.934712
"2445","2445","XX SETTEMBRE 1\DE FERRARI",44.406750,8.935593
"2446","2446","TROSSARELLI 18",44.459350,9.023917
"2447","2447","TROSSARELLI 2",44.459302,9.023972
"2449","2449","BARI 3\CREMAGLIERA",44.421062,8.916687
"2452","2452","FORNO INCENERITORE",44.430773,8.949362
"2453","2453","CICLAMINI 10\NARCISI",44.400477,9.002042
"2454","2454","MOGADISCIO 4\MERMI",44.439238,8.980983
"2455","2455","VEILINO 2\TRENTO E TRIESTE",44.432928,8.947412
"2456","2456","VEILINO 1\TOMBA ABELLO",44.430795,8.947935
"2457","2457","MONUMENTO CADUTI\CAPOLINEA",44.428900,8.948860
"2458","2458","CAMPO DELLE ROSE\CAPOLINEA",44.430358,8.952703
"2459","2459","LEVATI 2\CENTRO COMMERCIALE",44.469065,8.899237
"2464","2464","CARPENARA 6",44.448972,8.819662
"2465","2465","BRIAN 1\TOMBA MAZZINI",44.430788,8.951263
"2466","2466","CARPENARA 4",44.449120,8.819812
"2468","2468","CAMPO 21\MUSSULMANI",44.433838,8.948543
"2469","2469","TESTERO 1\TOMBA MONTUORO",44.432050,8.948500
"2470","2470","TESTERO 2\TOMBA FONTANA",44.432087,8.948753
"2471","2471","BRIAN 2",44.432005,8.951985
"2472","2472","BRIAN 3",44.431618,8.952855
"2473","2473","CASARETTO 1\TOMBA CROCE",44.431425,8.953068
"2474","2474","CASARETTO 2\TOMBA PERI",44.431280,8.953345
"2475","2475","CARENA LARCO",44.431365,8.954050
"2476","2476","PARODI",44.430893,8.953915
"2479","2479","COSTANZI 2\OSTELLO",44.428220,8.929097
"2480","2480","COSTANZI\CAPOLINEA",44.428852,8.929655
"2481","2481","LODI 2\CHIESA",44.438952,8.959205
"2482","2482","LODI 10\CHIESA",44.438828,8.959425
"2483","2483","PINO 11\PINO CEMBRO",44.455725,8.972678
"2484","2484","PINO 4",44.456655,8.973175
"2485","2485","MONTI\FARINI",44.414330,8.891050
"2486","2486","BARABINO 2\TORINO",44.399862,8.949927
"2488","2488","PASTORINO\PIAZZA SAVI",44.460960,8.902100
"2489","2489","PASTORINO\PIAZZA SAVI",44.460925,8.902175
"2492","2492","DE FERRARI\METRO'",44.407792,8.933900
"2493","2493","ROLLINO 11\FORTINI",44.442617,8.845063
"2494","2494","ROLLINO 1\FORTINI",44.442567,8.845200
"2495","2495","SAN CARLO DI CESE 9",44.479637,8.834953
"2496","2496","SAN CARLO DI CESE 1",44.479638,8.834727
"2497","2497","STRUPPA 1\BENEDETTO DA PORTO",44.449718,9.017775
"2498","2498","GNEO 1",44.443508,8.854650
"2499","2499","GNEO\CAPOLINEA",44.446957,8.852970
"2500","2500","EMILIA 7\MOLASSANA",44.451712,8.975227
"2501","2501","VEZZANI 5\AUTOSTRADA",44.437365,8.894847
"2502","2502","SANTA MARIA COSTA 1\SCUOLE",44.431793,8.844718
"2503","2503","SANTA MARIA COSTA 3\SCUOLE",44.432018,8.845120
"2504","2504","CAMPO 52\REPARTO CAVA",44.435173,8.948082
"2505","2505","GIUSSO 2\MONTANARI",44.425850,8.925580
"2506","2506","SAN BIAGIO 1\ROMAIRONE",44.473883,8.898708
"2507","2507","SAN BIAGIO 2\GARRONE",44.473163,8.897345
"2508","2508","SAN BIAGIO 4\GARRONE",44.473452,8.897383
"2509","2509","SAN BIAGIO 5\ROMAIRONE",44.473803,8.898073
"2510","2510","CANTORE 1\MATITONE",44.411672,8.906155
"2511","2511","ASILO GARBARINO 5\SCUOLA",44.416858,8.912200
"2512","2512","ASILO GARBARINO 1\SCUOLA",44.416885,8.912108
"2513","2513","SEDICI GIUGNO 2\FORNACI",44.433222,8.846413
"2514","2514","SEDICI GIUGNO 1\FORNACI",44.433162,8.846487
"2515","2515","SULFUREE 2\CRAVASCO",44.430760,8.768795
"2516","2516","SULFUREE 3\CRAVASCO",44.431097,8.768775
"2517","2517","PINO 13",44.465757,8.962082
"2518","2518","PINO 1",44.465830,8.962035
"2520","2520","CADIGHIARA 3\EX DAZIO",44.415213,8.994070
"2521","2521","CADIGHIARA 1\EX DAZIO",44.415092,8.993820
"2522","2522","MONTANELLA 2",44.432390,8.769427
"2523","2523","PRINCIPE FS\CAPOLINEA",44.416605,8.922412
"2527","2527","ANSALDO\MASSENA",44.415898,8.877230
"2528","2528","PEDULLA' 3\PONTE GREEN",44.447373,9.007243
"2529","2529","MAJORANA\EUROPA",44.390508,9.011937
"2530","2530","MOGADISCIO 13\PIANI S. EUSEBIO",44.442607,8.986502
"2531","2531","MOGADISCIO 1\PIANI S. EUSEBIO",44.442655,8.986457
"2533","2533","PEGLI 3\ASL",44.423842,8.804925
"2534","2534","PINO 15\MONTE DI PINO",44.468435,8.963298
"2535","2535","MONTE DI PINO",44.468455,8.963168
"2540","2540","BALBI 1\UNIVERSITA'",44.414552,8.926998
"2541","2541","GRAMSCI 1\COMMENDA",44.415438,8.921675
"2542","2542","CORRIDONI 2\GASTALDI",44.404330,8.964705
"2543","2543","CORRIDONI 1\GASTALDI",44.404263,8.963982
"2544","2544","PEROSIO\LEONARDO DA VINCI",44.398088,8.964312
"2545","2545","ORSINI 4\CAPRERA",44.395735,8.975880
"2546","2546","SALVAGO 1\PIAGGIO",44.419267,8.934427
"2547","2547","PIAGGIO 6\SALVAGO",44.419360,8.934657
"2548","2548","PASSO DELLO ZERBINO\GROPALLO",44.412677,8.947552
"2552","2552","DE GASPARI 1\CAVALLOTTI",44.391432,8.973553
"2553","2553","DE GASPARI 2\BRUNO",44.392777,8.970685
"2555","2555","SEMINI 4\FORESTALE",44.488355,8.898930
"2556","2556","DE STEFANIS 3\MIRTO",44.419120,8.951208
"2557","2557","CAPOLUNGO 2\VILLA GRIMALDI",44.381508,9.047610
"2558","2558","UNGARETTI 4",44.428137,8.796678
"2559","2559","V MAGGIO 5\OSPEDALE GASLINI",44.391267,8.988752
"2560","2560","THAON DI REVEL\BRIGNOLE FS",44.405590,8.946172
"2561","2561","ANFOSSI 2\PONTEDECIMO FS",44.494598,8.905138
"2562","2562","GALLINO\CAPOLINEA",44.501053,8.904435
"2563","2563","CAMPANULE 1\PRIMULE",44.396932,9.005965
"2564","2564","PRIMULE 1\EUROPA",44.395408,9.004717
"2565","2565","PRIMULE 2\CAMPANULE",44.397408,9.006692
"2567","2567","MONACO SIMONE 2\SHELLEY",44.402468,8.995157
"2569","2569","LORENZINI\CASTELLUCCIO",44.435347,8.808903
"2570","2570","CAMBIASO 11",44.446977,8.900847
"2571","2571","CAMBIASO 10",44.447008,8.900777
"2572","2572","FANTI D'ITALIA\PRINCIPE FS",44.416225,8.919158
"2574","2574","SIFFREDI 3\ALBARETO",44.418033,8.859152
"2576","2576","AVIO\FIUMARA",44.412050,8.885992
"2578","2578","ITALIA 4\QUARNARO",44.391885,8.955143
"2579","2579","ADAMOLI 4\SCIORBA",44.445797,8.969192
"2580","2580","PEDRINI",44.453952,8.905455
"2581","2581","SIFFREDI 1\TONALE",44.415387,8.862422
"2582","2582","UNGARETTI 7\RATTO",44.426235,8.797840
"2584","2584","VITTORIO VENETO\CAPOLINEA",44.411937,8.888450
"2586","2586","ROLLINO 9",44.438630,8.839045
"2587","2587","ROLLINO 3",44.438625,8.838982
"2589","2589","BERGHINI 10",44.416783,8.978332
"2590","2590","PRA' FS\CAPOLINEA",44.425935,8.789287
"2592","2592","BERGHINI 5",44.415607,8.978377
"2593","2593","BERGHINI 8",44.415562,8.978138
"2595","2595","CECCARDI\DANTE",44.405613,8.935745
"2598","2598","PRONTO SOCCORSO\SPECIALITA'",44.408108,8.974143
"2599","2599","BIANCO 1\POLIGONO",44.429097,8.920683
"2600","2600","IST SUD",44.410993,8.971707
"2611","2611","BIANCO 3\CHIASSAIUOLA",44.424718,8.912295
"2612","2612","PEDULLA' 1\CAMPO 25 APRILE",44.447120,9.001358
"2613","2613","PEDULLA' 2\SOLIMANO",44.448182,8.997347
"2614","2614","PEDULLA' 1\SOLIMANO",44.448040,8.997395
"2615","2615","PEDULLA' 2\CAMPO 25 APRILE",44.447022,9.001358
"2616","2616","PONTE GUGLIELMETTI",44.438722,8.963337
"2621","2621","FIUME\BRIGNOLE FS",44.406223,8.945275
"2623","2623","BIANCO 2\SALITA GRANAROLO",44.425768,8.912613
"2624","2624","BENEDICTA 3\NOVELLA",44.434603,8.767625
"2625","2625","SAN CARLO DI CESE 6",44.474757,8.830195
"2626","2626","SAN CARLO DI CESE 4",44.474693,8.830157
"2629","2629","CRETO 5\PERAGALLO",44.450658,9.006367
"2631","2631","MOLASSANA 6\ALLENDE",44.450738,8.972830
"2632","2632","MELEN 1",44.420178,8.865045
"2633","2633","MELEN 2",44.421647,8.865120
"2634","2634","MELEN 3",44.423417,8.864060
"2635","2635","MELEN 4\GREAT CAMPUS",44.426003,8.862422
"2636","2636","ERZELLI\CAPOLINEA",44.425907,8.862427
"2637","2637","MELEN 5",44.423335,8.863945
"2640","2640","SANT'ELIA 1",44.425597,8.861795
"2641","2641","DE FERRARI\METRO'",44.407412,8.934303
"2642","2642","BARI 2\BRINDISI",44.422295,8.916610
"2643","2643","S. EUSEBIO\CAPOLINEA",44.443347,8.987383
"2644","2644","S. EUSEBIO\CAPOLINEA",44.443392,8.987413
"2645","2645","BRACELLI 7\SCALINATA BRACELLI",44.417280,8.958072
"2646","2646","BUSCAGLIA\STRUPPA",44.448598,9.006600
"2647","2647","CRETO 1\PERAGALLO",44.450588,9.006223
"2648","2648","CRETO 2\PASSO RENATO",44.451652,9.005278
"2650","2650","CRETO 4",44.452823,9.005250
"2651","2651","CRETO 5\SAN SIRO",44.453685,9.003992
"2652","2652","CRETO 1\CA' BIANCA",44.454213,9.005167
"2653","2653","CRETO 2",44.452743,9.004900
"2654","2654","CRETO 3\CIMITERO",44.452128,9.004670
"2655","2655","CRETO 4\PASSO RENATO",44.451435,9.005030
"2656","2656","BONIFACIO\SARDEGNA",44.413498,8.955333
"2660","2660","BERGHINI 3",44.416802,8.978302
"2341","2341","N.S. GUARDIA\BOLZANETO FS",44.459292,8.898792
"2019","2019","N.S. GUARDIA\BOLZANETO FS",44.459238,8.898993
"0359","0359","GNEO 3\MONTE TIMONE",44.446185,8.853903
"0281","0281","GNEO 1\MONTE TIMONE",44.446102,8.853890
"0918","0918","BORZOLI 12\DA BISSONE",44.427670,8.857545
"1716","1716","BENEDETTO CESINO 7",44.504503,8.903777
"1717","1717","BENEDETTO CESINO 3",44.504528,8.903867
"0418","0418","TOGLIATTI 4\CAMPO SPORTIVO",44.396637,9.014737
"2668","2668","ISTRIA 2",44.428107,8.954403
"2669","2669","ISTRIA 4",44.428307,8.955085
"2682","2682","DEL PIANO\TORTOSA",44.414778,8.953010
"1719","1719","PADIGLIONI 6-7",44.409167,8.971318
"1723","1723","ROLLINO 10",44.443845,8.841165
"1724","1724","ROLLINO 2",44.443875,8.841157
"2662","2662","MOREGO 2",44.471450,8.905040
"2663","2663","MOREGO 5",44.471320,8.904772
"2665","2665","ROSSINI\RIVAROLO FS",44.435607,8.892472
"0543","0543","PRINCIPE FS\CAPOLINEA",44.416475,8.922117
"0728","0728","PEROTTO\MELEN",44.422950,8.863728
"0729","0729","ACCIAIO\CAMPO SPORTIVO",44.418745,8.860217
"1714","1714","BUFFA 1\VENTIMIGLIA",44.429313,8.758168
"1715","1715","BUFFA 2\LAIGUEGLIA",44.429490,8.755232
"1722","1722","PINETTI\GINESTRATO",44.420703,8.972713
"0429","0429","BUFFA 2\VERITA'",44.428968,8.758312
"1372","1372","BERNARDINI\DI PINO",44.454492,8.977592
"9780","9780","GENOVA\PIAZZA MANIN",44.414733,8.948382
"9781","9781","SAN PANTALEO",44.424185,8.943405
"9782","9782","SANT'ANTONINO",44.433650,8.939622
"9783","9783","CAPPUCCIO",44.442858,8.943260
"9784","9784","TRENSASCO",44.461682,8.951568
"9785","9785","CAMPI",44.463907,8.955427
"9786","9786","PINO",44.468608,8.959660
"9787","9787","TORRAZZA",44.474137,8.961990
"9788","9788","SARDORELLA",44.480273,8.975558
"9789","9789","VALLOMBROSA",44.483967,8.980562
"9790","9790","VICOMORASSO",44.485857,8.977290
"9791","9791","SANT'OLCESE\CHIESA",44.491175,8.972482
"9792","9792","SANT'OLCESE\TULLO",44.492310,8.974647
"9793","9793","BUSALLETTA",44.496727,8.988795
"9794","9794","MOLINETTI",44.504170,8.992713
"9795","9795","NIUSCI",44.509313,8.989800
"9796","9796","CANOVA",44.520655,8.987880
"9797","9797","CASELLA\DEPOSITO",44.528805,8.994453
"9798","9798","CASELLA\PAESE",44.534235,8.995510
"9799","9799","CROCETTA D'ORERO",44.517390,8.988798
"0077","0077","SIFFREDI 1\CALCINARA",44.421490,8.856693
"0078","0078","SIFFREDI 2\ACCIAIO",44.420240,8.858278
"0710","0710","GUARDIA\GARRONE",44.470270,8.896310
"2389","2389","OSPEDALE DI VOLTRI\GIANASSO",44.430058,8.745820
"2649","2649","CRETO 3\CIMITERO",44.452125,9.004505
"2591","2591","AMARENA 2\SCUOLA D'ALBERTIS",44.413168,8.959287
"2373","2373","PARKS\VERITA'",44.428375,8.755748
"2549","2549","BRUZZO\MONTE CIMONE",44.461313,8.901083
"2550","2550","BRUZZO\MONTE CIMONE",44.461335,8.901135
"2043","2043","MOLASSANA\CAPOLINEA",44.454610,8.979812
"2661","2661","PUCCINI\SESTRI FS AEROPORTO",44.422038,8.849955
"0598","0598","PONTE DON ACCIAI\LAGACCIO",44.425842,8.917712
"0623","0623","BATTISTI\SCUOLE",44.395343,8.952600
"0624","0624","MERANI\CAPOLINEA",44.397207,8.953060
"0625","0625","TRENTO\CADORE",44.396615,8.951440
"1791","1791","ROVETTA 1\MARTIRI LIBERTA'",44.427080,8.812327
"1882","1882","CANEPA 1\DEL CARRETTO",44.428573,8.851443
"1578","1578","CANEPA 2\MALMISTRA",44.427488,8.850852
"1009","1009","PIAZZA ARRIVABENE",44.433118,8.853808
"1010","1010","ARRIVABENE",44.431103,8.853252
"0822","0822","SARDEGNA 4\PIAZZA GIUSTI",44.406063,8.952425
"0180","0180","SAN QUIRICO 4\BUDULLI",44.479928,8.900545
"0181","0181","SAN QUIRICO 5\RIO FULLE",44.483370,8.900818
"0195","0195","SAN QUIRICO 3\RIO FULLE",44.483092,8.900777
"0194","0194","SAN QUIRICO 2\CHIESA",44.485767,8.900252
"0182","0182","SAN QUIRICO 6\CHIESA",44.486432,8.900313
"0591","0591","PONTE DON ACCIAI\LAGACCIO",44.425952,8.917513
"2680","2680","GIANELLI 2\QUINTO FS",44.384312,9.019615
"2681","2681","BENZI\OSPEDALE SAN MARTINO",44.407203,8.969665
"4101","4101","PORTO ANTICO\CARICAMENTO",44.409392,8.927402
"4102","4102","PEGLI\MOLO ARCHETTI",44.423420,8.819998
"3136","3136","CANEPARI\CAPOLINEA",44.430088,8.893305
"2450","2450","CIBRARIO\SESTRI FS AEROPORTO",44.421660,8.849115
"1718","1718","AEROPORTO\ARRIVI",44.415000,8.850348
"2573","2573","FANTI D'ITALIA\PRINCIPE FS",44.415997,8.919493
"10624","10624","CARICAMENTO\SOTTORIPA",44.409575,8.929032
"10630","10630","SAN GIORGIO\TURATI",44.407352,8.928665
"10631","10631","GIUSTINIANI\VALORIA",44.406690,8.930653
"10632","10632","SAN DONATO\FERRETTO",44.405942,8.931748
"10633","10633","PRIONE\FATE",44.405617,8.933235
"10634","10634","SAN LORENZO\MATTEOTTI",44.407263,8.931778
"10636","10636","CAMPETTO\SOZIGLIA",44.409152,8.931503
"10637","10637","BANCHI\SAN LUCA",44.409350,8.929780
"0919","0919","CHIARAVAGNA 8\DA BISSONE",44.428500,8.854043
"0920","0920","CHIARAVAGNA 9\BELARDI",44.426592,8.853177
"1569","1569","SAFFI 5\RIVOLI",44.400402,8.932685
"10621","10621","MONTE NERO",44.423000,8.950657
"10562","10562","MONTE ROSA",44.422213,8.951443
"10571","10571","MONTE ROSA 1",44.421388,8.950903
"0615","0615","BRIGNOLE FS\CAPOLINEA",44.406140,8.946617
"0524","0524","MILANO\TRAGHETTI",44.410755,8.908323
"0507","0507","INVREA 1\ANTIOCHIA",44.404775,8.949937
"0434","0434","DEGOLA\FIUMARA",44.414350,8.883943
"0227","0227","EMILIA 2\FOSSATO CICALA",44.443435,8.965122
"2683","2683","FERRETTO\SAVELLI",44.411420,8.960338
"2684","2684","IMPERIALE 2\DONAVER",44.409210,8.961772
"2685","2685","IMPERIALE 3",44.409005,8.962575
"2686","2686","IMPERIALE 4",44.408882,8.962782
"2687","2687","IMPERIALE 5",44.408432,8.963097
